ROBOTLASER1 0 -1.570796 3.141593 0.017453 81.900000 0.010000 0 181 1.74 1.74 1.75 1.76 1.77 1.78 1.78 1.79 1.80 1.81 1.72 1.66 1.64 1.49 1.43 1.44 3.39 3.26 3.16 3.06 1.89 1.78 1.77 1.79 1.83 1.89 1.89 1.90 1.67 1.68 1.89 1.98 2.91 2.86 2.81 2.77 2.71 2.67 2.62 2.59 2.55 2.50 2.42 2.44 2.40 2.39 2.35 2.33 2.30 2.28 2.26 2.24 2.21 2.20 2.18 2.16 2.14 2.10 1.85 1.84 1.81 1.81 1.82 1.83 2.03 2.02 1.98 1.98 1.95 6.09 6.07 6.05 6.04 5.75 5.73 5.73 5.73 5.72 5.84 5.97 5.97 5.97 5.96 6.51 6.53 6.28 6.49 6.35 6.07 6.12 4.12 6.57 4.51 6.69 4.12 2.19 2.10 2.01 2.02 5.27 3.13 3.18 2.96 3.26 3.20 3.08 2.97 1.89 1.69 1.62 1.64 1.66 1.67 1.70 1.72 1.73 1.75 1.77 1.78 1.80 1.83 1.86 1.88 1.91 1.94 1.97 2.00 2.03 2.07 2.10 2.14 2.20 2.28 5.52 5.49 5.42 5.34 5.25 5.34 5.99 6.57 6.53 6.50 6.73 7.00 7.42 4.80 4.78 4.78 1.28 1.26 1.24 1.23 1.23 1.22 1.22 1.21 1.21 1.10 0.95 0.94 0.91 0.66 0.65 0.64 0.64 0.64 0.64 0.64 0.64 0.64 0.62 0.66 0.65 0.65 0.66 0.94 0.97 0.98 0.98 0.98 0 -1.170270 -0.129157 0.273777 
ODOM -1.170270 -0.129157 0.273777 
ROBOTLASER1 0 -1.570796 3.141593 0.017453 81.900000 0.010000 0 181 3.82 3.70 3.79 3.73 3.74 1.62 1.65 1.58 1.58 1.59 1.59 1.58 1.39 1.39 1.61 1.59 1.59 1.58 1.58 1.61 2.75 2.77 2.79 2.80 2.83 2.78 2.68 2.60 2.52 2.44 2.38 2.30 2.24 2.19 2.14 2.08 1.95 1.92 1.95 1.91 1.87 1.84 1.81 1.77 1.75 1.71 1.68 1.66 1.63 1.60 1.58 1.54 1.24 1.37 1.18 1.18 1.17 1.17 1.17 1.17 1.38 1.39 1.38 1.37 1.36 1.31 1.28 1.26 1.32 2.69 2.69 2.73 5.49 5.46 5.43 5.41 5.39 5.36 5.34 5.32 5.06 5.01 4.99 4.98 4.98 4.97 5.04 5.24 5.24 5.23 5.22 5.27 5.79 5.79 5.55 5.69 3.39 5.39 5.34 5.65 3.53 3.24 5.91 5.97 3.74 3.30 3.35 3.40 2.93 6.08 1.41 1.40 1.39 1.31 1.31 1.32 2.30 2.28 2.59 2.50 2.42 2.36 2.30 2.24 2.18 2.13 2.08 2.03 1.97 1.26 1.29 2.30 1.91 1.82 1.07 1.02 1.01 1.03 1.06 1.08 1.10 1.15 1.16 1.18 1.21 1.22 1.25 1.29 1.32 1.37 1.40 1.43 1.47 1.52 1.56 1.62 1.65 1.72 6.49 6.92 6.82 7.02 7.15 7.56 4.48 4.53 4.50 4.48 4.47 4.45 4.44 4.43 4.42 4.41 4.40 4.39 4.40 4.38 4.38 4.37 4.39 0 -0.401779 -0.016032 0.098426 
ODOM -0.401779 -0.016032 0.098426 
ROBOTLASER1 0 -1.570796 3.141593 0.017453 81.900000 0.010000 0 181 0.59 0.60 0.61 0.61 0.62 0.63 0.64 0.65 0.65 0.64 81.91 1.12 1.04 0.96 0.87 0.82 0.71 0.57 0.52 0.52 0.52 0.52 0.53 0.53 0.55 0.55 0.56 0.56 0.54 3.10 2.92 2.58 2.90 2.95 2.98 2.10 2.04 1.98 1.94 1.89 1.85 1.81 1.79 1.81 1.84 1.87 1.90 1.93 1.91 1.80 1.85 1.89 1.94 1.97 2.22 1.94 1.84 1.76 1.75 1.74 1.76 1.76 1.79 1.82 4.68 4.65 4.61 4.57 4.55 4.53 4.49 4.47 4.43 4.41 4.39 4.36 4.33 4.31 4.30 4.04 4.00 3.99 3.97 3.96 3.95 3.95 3.95 4.20 4.20 4.20 4.20 4.20 4.18 4.26 4.75 4.76 4.55 4.52 4.78 4.59 2.38 4.31 4.32 4.85 4.88 2.81 4.93 2.23 4.71 2.79 4.92 2.68 4.42 2.41 2.38 2.14 5.21 5.24 3.60 2.08 3.41 3.31 3.22 3.13 3.04 2.96 2.89 2.82 2.76 2.71 2.07 1.88 1.84 1.82 1.79 1.69 1.45 1.45 1.75 1.66 1.64 1.62 1.59 1.57 1.56 0.93 0.67 0.63 0.61 0.59 0.59 0.62 0.58 0.61 0.59 0.64 0.59 0.56 0.60 0.58 0.57 0.58 0.56 0.57 0.57 0.63 1.71 1.62 1.45 1.66 1.67 1.69 1.60 1.58 1.57 1.67 1.65 1.65 1.71 1.72 1.72 0 0.619171 0.057778 0.018143 
ODOM 0.619171 0.057778 0.018143 
ROBOTLASER1 0 -1.570796 3.141593 0.017453 81.900000 0.010000 0 181 1.15 1.24 1.38 1.51 1.35 1.34 1.34 1.34 1.34 1.41 1.48 1.36 1.36 1.36 1.34 1.33 1.34 1.34 1.34 3.74 3.06 2.95 2.96 3.76 3.82 3.79 3.55 3.46 3.97 3.33 2.84 2.67 2.88 2.61 2.73 2.62 1.82 1.75 1.68 1.62 1.56 1.50 1.50 1.52 1.54 1.55 1.57 1.59 1.60 1.51 1.47 1.49 1.52 1.55 1.56 1.59 1.62 1.77 1.55 1.49 1.46 1.44 1.36 1.35 1.36 1.36 1.39 1.40 1.43 4.46 4.42 4.36 4.02 4.23 4.26 4.21 4.17 4.15 4.11 4.08 4.06 4.02 3.99 3.97 3.94 3.92 3.90 3.88 3.86 3.86 3.54 3.53 3.52 3.51 3.49 3.49 3.48 3.48 3.52 3.73 3.72 3.72 3.72 3.72 3.71 3.71 4.27 4.31 4.30 4.07 4.09 4.34 4.15 4.35 3.86 1.95 4.42 4.43 4.45 4.52 2.38 4.54 4.28 1.81 4.53 2.37 4.01 2.28 4.19 4.74 2.05 2.00 2.00 2.03 3.22 3.16 81.91 2.99 2.92 1.65 2.78 2.72 2.67 2.61 2.57 2.52 2.46 2.43 2.38 2.35 2.31 2.27 2.20 1.74 1.58 1.56 1.56 1.54 1.52 1.51 1.49 1.47 1.33 1.25 1.20 1.20 1.34 1.40 1.40 1.37 1.38 1.37 1.37 1.36 1.35 1.35 1.33 1.32 1.31 1.31 1.31 0 1.073821 0.029859 -0.238402 
ODOM 1.073821 0.029859 -0.238402 
ROBOTLASER1 0 -1.570796 3.141593 0.017453 81.900000 0.010000 0 181 1.10 1.14 1.18 1.23 1.29 1.35 1.42 1.33 1.32 1.31 1.31 1.30 1.35 1.41 1.41 1.35 1.27 1.26 1.25 1.25 1.25 1.25 1.31 1.83 3.60 3.66 3.62 3.63 3.65 3.09 2.83 2.86 3.58 3.67 3.65 3.66 3.45 3.35 3.82 2.71 2.64 2.72 2.15 1.71 1.60 1.50 1.42 1.34 1.32 1.33 1.34 1.35 1.36 1.37 1.38 1.39 1.38 1.27 1.27 1.29 1.30 1.32 1.34 1.35 1.37 1.39 1.36 1.34 1.29 1.25 1.24 1.21 1.19 1.11 1.13 1.13 1.14 1.15 1.18 1.25 4.32 4.26 4.22 4.18 4.12 3.81 3.90 4.01 3.97 3.93 3.90 3.87 3.84 3.81 3.79 3.74 3.71 3.70 3.68 3.65 3.63 3.61 3.59 3.58 3.34 3.28 3.27 3.26 3.25 3.24 3.24 3.24 3.23 3.27 3.48 3.48 3.48 3.48 3.48 3.48 3.47 3.67 4.08 4.08 3.91 3.83 3.96 3.99 3.93 3.74 3.63 3.66 4.21 4.23 1.71 4.28 4.31 4.34 2.16 81.91 4.33 3.88 3.81 1.68 3.93 4.56 4.62 4.65 4.71 1.89 1.85 1.83 1.85 2.96 2.88 2.77 2.46 2.73 2.68 2.63 81.91 1.64 2.47 2.44 2.40 2.37 2.34 2.30 2.27 2.24 2.20 2.18 2.13 2.11 2.07 2.04 1.54 1.53 1.51 1.50 1.51 0 1.332848 -0.066060 -0.435393 
ODOM 1.332848 -0.066060 -0.435393 
ROBOTLASER1 0 -1.570796 3.141593 0.017453 81.900000 0.010000 0 181 1.42 1.52 1.63 1.74 1.81 2.01 2.25 3.63 3.52 3.52 3.54 3.49 3.52 3.52 2.74 2.72 2.73 3.49 3.51 3.50 3.46 3.46 2.99 3.60 3.58 3.55 1.11 1.11 1.12 1.12 1.12 1.12 1.12 1.13 1.14 1.15 1.01 1.00 1.03 1.04 1.06 81.91 81.91 81.91 1.12 1.10 1.09 1.11 0.99 0.93 1.03 1.02 0.99 0.98 0.97 0.97 0.98 0.98 0.96 0.81 0.80 0.81 0.83 0.84 4.32 4.26 4.19 4.13 4.08 4.02 3.97 3.93 3.88 3.82 3.76 3.35 3.57 3.65 3.62 3.59 3.56 3.53 3.50 3.48 3.45 3.42 3.41 3.38 3.36 3.34 3.32 3.31 3.28 3.27 3.25 3.25 2.96 2.95 2.95 2.95 2.94 2.93 2.93 2.93 2.93 2.93 2.99 3.18 3.17 3.18 3.18 3.18 3.18 3.17 3.25 3.76 3.79 3.76 3.54 3.57 3.84 3.64 3.75 3.46 3.38 3.39 3.98 4.01 4.02 4.06 4.09 4.12 4.01 1.47 4.12 4.06 1.92 3.59 3.67 3.83 4.41 2.01 81.91 4.55 1.42 81.91 6.89 2.92 2.91 1.94 1.70 1.68 1.70 1.99 2.61 2.56 2.53 2.49 2.45 2.41 2.39 2.36 2.33 2.30 81.91 2.24 2.24 2.22 2.19 2.16 2.14 2.13 2.09 2.08 2.05 2.03 2.02 2.01 1.99 1.60 1.53 0 1.634899 -0.181175 -0.240163 
ODOM 1.634899 -0.181175 -0.240163 
ROBOTLASER1 0 -1.570796 3.141593 0.017453 81.900000 0.010000 0 181 1.03 1.02 1.02 1.02 1.02 0.95 0.86 0.87 0.87 0.88 0.88 0.88 0.89 0.90 0.89 0.90 0.88 0.83 0.77 0.76 0.70 0.63 0.61 0.67 0.69 0.67 0.66 0.67 0.65 0.66 0.66 0.67 0.68 0.69 0.71 0.71 0.73 0.63 0.63 4.13 3.95 3.85 3.86 2.48 2.45 2.47 3.24 2.55 4.18 4.09 4.04 3.97 3.90 3.84 3.79 3.71 3.66 3.60 3.56 3.52 3.47 3.11 3.21 3.36 3.33 3.30 3.27 3.24 3.21 3.18 3.16 3.13 3.10 3.09 3.06 3.04 3.02 3.01 2.99 2.97 2.96 2.95 2.93 2.93 2.72 2.64 2.63 2.62 2.62 2.61 2.61 2.60 2.60 2.60 2.61 2.60 2.71 2.87 2.87 2.86 2.86 2.88 2.87 2.87 2.88 2.98 3.46 3.46 3.30 3.23 3.29 3.50 3.35 3.46 3.58 3.09 3.11 3.16 3.70 3.73 3.74 3.81 3.85 3.88 3.56 3.83 3.83 3.82 3.34 3.35 3.37 1.26 4.22 4.27 4.32 4.34 2.06 6.67 1.81 3.41 3.40 1.98 2.73 2.70 2.65 1.25 81.91 2.57 1.56 1.53 1.52 1.55 1.98 2.35 2.32 2.30 2.28 2.26 2.23 2.22 2.20 2.18 2.16 2.15 2.14 2.13 2.10 2.01 2.10 2.07 2.04 2.05 2.01 81.91 2.00 2.00 2.00 1.99 2.00 1.99 1.68 0 1.970046 -0.239537 -0.024088 
ODOM 1.970046 -0.239537 -0.024088 
ROBOTLASER1 0 -1.570796 3.141593 0.017453 81.900000 0.010000 0 181 0.68 0.66 0.66 0.69 0.71 0.73 0.79 0.90 1.03 1.04 1.05 1.05 1.06 1.06 3.80 3.83 3.85 3.88 3.91 3.94 3.98 3.99 3.92 3.97 3.98 3.79 2.32 2.28 2.30 2.31 2.55 3.13 4.52 4.02 3.95 3.88 3.81 3.73 3.67 3.61 3.55 3.49 3.43 3.39 3.34 3.28 3.07 2.81 3.18 3.13 3.11 3.08 3.04 3.02 2.98 2.95 2.92 2.90 2.88 2.86 2.83 2.82 2.80 2.77 2.76 2.74 2.71 2.70 2.69 2.67 2.68 2.45 2.37 2.36 2.35 2.35 2.35 2.35 2.34 2.34 2.34 2.33 2.33 2.34 2.41 2.60 2.60 2.61 2.62 2.61 2.62 2.62 2.62 2.62 2.81 3.22 3.23 3.13 3.01 3.02 3.28 3.13 3.11 3.34 3.03 2.86 2.87 2.93 3.47 3.49 3.53 3.56 3.60 3.63 3.41 3.52 3.61 3.57 3.51 3.12 2.75 2.61 2.58 2.63 2.65 1.62 2.57 2.57 6.32 1.88 6.10 6.02 1.60 2.57 2.55 2.54 2.50 2.46 2.43 2.41 2.38 2.35 2.21 1.16 1.11 1.40 1.39 1.41 1.46 2.18 2.19 2.15 2.14 2.13 2.11 2.10 2.09 2.08 2.06 2.05 2.05 2.04 2.04 2.03 2.03 2.00 1.99 1.98 1.97 1.97 1.97 1.96 1.96 1.96 1.99 81.91 2.00 1.69 1.55 1.56 1.56 0 2.242546 -0.222011 0.174409 
ODOM 2.242546 -0.222011 0.174409 
ROBOTLASER1 0 -1.570796 3.141593 0.017453 81.900000 0.010000 0 181 3.62 3.58 3.57 3.65 3.58 3.61 3.71 3.73 3.74 3.75 3.79 3.81 3.82 3.83 2.12 3.79 3.76 3.80 3.65 3.22 2.96 2.85 2.98 3.99 4.03 4.07 4.10 3.70 3.62 3.52 3.43 3.34 3.26 3.19 3.12 3.05 3.00 2.43 2.42 2.80 2.75 2.72 2.67 2.63 2.59 2.55 2.51 2.47 2.43 2.39 2.37 2.34 2.31 2.29 2.26 2.23 2.22 2.20 2.17 2.15 2.13 2.10 2.08 2.08 2.05 2.05 1.75 1.73 1.73 1.72 1.71 1.70 1.69 1.68 1.67 1.66 1.67 1.66 1.66 1.65 1.65 1.65 1.65 1.68 1.90 1.90 1.90 1.90 1.90 1.90 1.90 1.90 1.90 1.90 1.91 1.90 1.90 1.95 2.50 2.51 2.52 2.52 2.30 2.28 2.31 2.51 2.49 2.41 2.41 2.64 2.67 2.26 2.16 2.17 2.17 2.77 2.81 2.84 2.88 2.91 2.94 2.98 3.01 2.73 2.87 2.95 2.93 2.93 2.87 2.50 2.51 2.54 2.64 3.23 3.54 3.54 5.71 5.64 5.56 5.48 5.40 5.34 5.28 4.59 4.41 4.59 4.72 4.87 4.94 4.88 1.68 81.91 2.04 2.02 2.02 2.00 1.99 1.97 1.95 1.20 1.94 1.93 1.92 1.91 1.89 1.90 1.89 1.88 1.88 1.87 1.87 1.87 1.86 1.87 1.87 1.83 1.15 1.12 1.09 1.10 1.11 0 2.894251 -0.081666 -0.003282 
ODOM 2.894251 -0.081666 -0.003282 
ROBOTLASER1 0 -1.570796 3.141593 0.017453 81.900000 0.010000 0 181 3.70 3.10 3.39 3.47 3.59 3.60 3.55 3.60 3.59 3.55 3.59 3.57 3.57 3.62 3.57 3.59 3.67 3.69 3.71 3.71 3.73 3.73 3.75 2.06 3.80 3.70 3.71 3.74 3.70 3.00 2.86 2.80 3.09 3.91 3.94 3.97 4.01 3.73 3.58 3.48 3.38 3.28 3.20 3.11 3.04 2.96 2.87 2.23 2.66 2.70 2.64 2.62 2.57 2.52 2.47 2.43 2.39 2.35 2.31 2.28 2.25 2.22 2.19 2.16 2.14 2.11 2.08 2.06 2.04 2.03 2.01 1.97 1.96 1.95 1.93 1.90 1.72 1.59 1.58 1.57 1.56 1.56 1.56 1.55 1.54 1.53 1.52 1.52 1.51 1.50 1.50 1.49 1.50 1.50 1.49 1.49 1.75 1.75 1.75 1.75 1.75 1.75 1.75 1.75 1.74 1.74 1.75 1.75 1.75 1.74 1.76 1.92 2.34 2.35 2.36 2.33 2.15 2.12 2.16 2.43 2.32 2.25 2.27 2.51 2.53 2.51 2.02 2.03 2.04 2.07 2.69 2.74 2.76 2.79 2.82 2.85 2.90 2.88 2.54 2.86 2.80 2.84 2.79 2.74 2.39 2.39 2.42 2.54 3.36 3.43 3.47 5.52 5.45 5.37 5.30 5.24 5.18 5.11 4.32 4.49 4.63 4.79 4.86 4.81 4.79 4.75 1.99 1.98 1.99 1.46 1.96 1.96 1.94 1.96 1.93 1.91 1.91 1.90 1.90 1.84 1.81 0 3.056791 -0.095089 -0.216213 
ODOM 3.056791 -0.095089 -0.216213 
ROBOTLASER1 0 -1.570796 3.141593 0.017453 81.900000 0.010000 0 181 1.41 1.47 1.52 1.58 2.41 2.43 2.41 2.39 2.38 2.36 2.38 2.48 3.73 3.72 3.20 3.24 3.08 3.61 3.57 3.56 3.58 3.54 3.56 3.58 3.53 3.56 3.58 3.54 3.57 3.58 3.66 3.67 3.69 2.08 2.02 2.03 2.03 3.73 3.75 3.68 3.68 3.68 3.66 2.91 2.76 2.79 3.05 3.88 3.91 3.92 3.97 3.68 3.52 3.40 3.31 3.22 3.12 3.04 2.96 2.88 2.25 2.23 2.68 2.62 2.57 2.53 2.49 2.43 2.39 2.35 2.31 2.27 2.23 2.20 2.16 2.13 2.11 2.09 2.05 2.03 2.01 1.98 1.97 1.94 1.92 1.89 1.87 1.86 1.85 1.82 1.80 1.51 1.50 1.48 1.47 1.46 1.46 1.45 1.44 1.44 1.43 1.42 1.42 1.42 1.42 1.41 1.41 1.40 1.40 1.40 1.39 1.50 1.65 1.65 1.66 1.65 1.65 1.65 1.65 1.66 1.66 1.66 1.66 1.66 1.65 1.66 1.66 1.68 2.20 2.28 2.28 2.25 2.06 2.06 2.04 2.17 2.34 2.18 2.17 2.41 2.44 2.46 2.08 1.94 1.96 1.96 2.01 2.63 2.67 2.71 2.73 2.76 2.81 2.83 2.77 2.52 2.78 2.75 2.76 2.71 2.67 2.32 2.34 2.37 2.49 3.38 3.40 5.48 5.40 5.33 5.27 5.20 5.15 5.10 4.32 4.33 4.54 4.70 4.80 4.80 4.79 0 3.106432 -0.107371 -0.465177 
ODOM 3.106432 -0.107371 -0.465177 
ROBOTLASER1 0 -1.570796 3.141593 0.017453 81.900000 0.010000 0 181 1.39 1.37 1.36 1.35 1.33 1.32 1.31 1.29 1.29 1.27 81.91 81.91 1.49 1.56 1.54 1.59 2.44 2.42 2.41 2.39 2.38 2.36 2.38 3.67 3.72 3.71 3.19 3.26 3.08 3.61 3.57 3.56 3.59 3.54 3.57 3.58 3.54 3.57 3.57 3.55 3.58 3.57 3.67 3.68 3.69 2.07 2.02 2.04 2.08 3.74 3.75 3.67 3.69 3.67 3.63 2.89 2.75 2.82 3.06 3.86 3.90 3.91 3.95 3.66 3.51 3.40 3.30 3.21 3.12 3.03 2.96 2.88 2.21 2.27 2.67 2.62 2.56 2.52 2.47 2.42 2.38 2.33 2.31 2.26 2.23 2.19 2.17 2.13 2.10 2.07 2.04 2.02 2.00 1.97 1.96 1.93 1.91 1.88 1.85 1.85 1.83 1.81 1.76 1.50 1.48 1.48 1.48 1.47 1.46 1.45 1.44 1.43 1.43 1.42 1.42 1.41 1.41 1.40 1.40 1.40 1.40 1.40 1.39 1.54 1.64 1.65 1.64 1.64 1.65 1.65 1.65 1.65 1.65 1.65 1.66 1.66 1.66 1.66 1.65 1.69 2.17 2.28 2.28 2.25 2.06 2.05 2.07 2.18 2.31 2.17 2.17 2.41 2.43 2.46 2.04 1.93 1.94 1.95 2.01 2.64 2.66 2.69 2.73 2.76 2.80 2.83 2.77 2.60 2.78 2.75 2.76 2.71 2.66 2.31 2.32 2.36 2.47 3.38 3.39 5.47 5.45 0 3.106719 -0.107598 -0.695111 
ODOM 3.106719 -0.107598 -0.695111 
ROBOTLASER1 0 -1.570796 3.141593 0.017453 81.900000 0.010000 0 181 1.20 1.21 1.20 1.22 1.23 1.29 1.37 1.51 1.49 1.47 1.45 1.42 1.40 1.39 1.37 1.35 1.34 1.32 1.30 1.29 1.28 1.27 1.41 1.42 1.48 1.53 1.55 1.59 2.43 2.43 2.41 2.39 2.38 2.38 2.38 3.68 3.73 3.71 3.21 3.29 3.08 3.60 3.57 3.57 3.59 3.56 3.56 3.57 3.56 3.57 3.57 3.55 3.58 3.58 3.67 3.68 3.69 2.08 2.04 2.04 81.91 3.74 3.76 3.68 3.70 3.67 3.56 2.88 2.76 2.84 3.07 3.87 3.90 3.92 3.95 3.67 3.51 3.40 3.30 3.21 3.12 3.03 2.96 2.88 2.20 2.30 2.67 2.62 2.56 2.54 2.47 2.43 2.39 2.34 2.30 2.26 2.23 2.19 2.17 2.13 2.11 2.07 2.05 2.03 2.00 1.98 1.96 1.93 1.91 1.88 1.86 1.84 1.83 1.81 1.69 1.50 1.49 1.48 1.48 1.47 1.46 1.45 1.44 1.43 1.43 1.42 1.42 1.41 1.41 1.40 1.41 1.40 1.40 1.40 1.40 1.58 1.64 1.64 1.64 1.64 1.64 1.65 1.64 1.65 1.65 1.65 1.66 1.66 1.65 1.65 1.66 1.72 2.11 2.26 2.28 2.25 2.05 2.04 2.07 2.29 2.29 2.17 2.17 2.41 2.42 2.45 2.05 1.93 1.94 1.95 2.02 2.63 2.66 2.69 2.73 2.77 2.79 2.84 2.76 2.55 2.79 0 3.108807 -0.109853 -0.900623 
ODOM 3.108807 -0.109853 -0.900623 
ROBOTLASER1 0 -1.570796 3.141593 0.017453 81.900000 0.010000 0 181 2.43 2.32 2.27 2.30 2.31 1.10 1.07 1.06 1.06 1.06 1.19 1.18 1.17 1.16 1.19 1.20 1.28 1.34 1.50 1.49 1.45 1.44 1.41 1.39 1.36 1.35 1.34 1.32 1.30 1.28 1.27 1.26 1.24 1.35 1.40 1.40 1.44 1.49 1.52 1.56 2.41 2.41 2.38 2.37 2.35 2.35 2.35 2.37 3.68 3.69 3.67 3.19 3.18 3.03 3.52 3.53 3.53 3.53 3.54 3.51 3.51 3.53 3.51 3.52 3.52 3.51 3.53 3.55 3.61 3.62 2.02 1.96 1.97 1.96 3.70 3.69 3.61 3.62 3.64 3.53 2.90 2.74 2.69 2.82 3.76 3.81 3.84 3.87 3.90 3.55 3.44 3.32 3.23 3.13 3.04 2.96 2.89 2.81 2.14 2.18 2.61 2.56 2.50 2.46 2.42 2.37 2.33 2.29 2.25 2.22 2.17 2.14 2.11 2.08 2.05 2.03 2.00 1.97 1.95 1.93 1.91 1.89 1.86 1.84 1.81 1.80 1.80 1.78 1.75 1.74 1.46 1.44 1.43 1.43 1.42 1.41 1.40 1.39 1.39 1.38 1.38 1.37 1.37 1.37 1.37 1.36 1.36 1.36 1.36 1.36 1.36 1.50 1.60 1.59 1.59 1.59 1.59 1.60 1.61 1.61 1.61 1.61 1.62 1.62 1.62 1.62 1.63 1.67 2.21 2.24 2.25 2.19 2.03 2.01 2.06 2.33 2.19 2.15 2.16 2.41 2.41 0 3.166117 -0.206259 -1.113999 
ODOM 3.166117 -0.206259 -1.113999 
ROBOTLASER1 0 -1.570796 3.141593 0.017453 81.900000 0.010000 0 181 2.58 2.59 2.61 2.61 2.62 1.10 1.01 1.01 1.01 1.00 1.01 1.02 1.08 1.13 1.14 1.17 1.26 1.33 1.28 1.29 1.43 1.40 1.37 1.33 1.31 1.29 1.24 1.23 1.19 1.18 1.16 1.14 1.12 1.10 1.17 1.19 1.21 1.22 1.26 1.27 1.30 1.32 1.35 1.38 1.42 2.28 2.26 2.25 2.24 2.20 2.19 2.19 2.18 2.16 2.15 2.19 3.52 3.51 3.47 3.47 2.97 2.92 2.83 3.25 3.32 3.29 3.30 3.31 3.29 3.28 3.28 3.29 3.28 3.27 3.28 3.28 3.28 3.28 3.37 3.37 3.37 3.38 1.74 1.72 3.41 3.42 3.43 3.42 3.37 3.38 3.35 3.13 2.55 2.41 2.42 2.76 3.52 3.54 3.56 3.59 3.62 3.35 3.21 3.11 3.01 2.93 2.85 2.77 2.69 2.64 2.57 2.37 1.86 2.06 2.33 2.28 2.24 2.22 2.17 2.14 2.10 2.06 2.03 2.01 1.97 1.94 1.92 1.89 1.88 1.85 1.83 1.81 1.78 1.77 1.75 1.73 1.72 1.70 1.69 1.67 1.65 1.64 1.62 1.61 1.62 1.59 1.57 1.56 1.57 1.55 1.28 1.28 1.27 1.26 1.26 1.25 1.25 1.24 1.24 1.24 1.24 1.24 1.24 1.24 1.24 1.24 1.23 1.25 1.24 1.24 1.25 1.25 1.26 1.29 1.52 1.53 1.53 1.54 1.54 1.55 1.55 0 3.265054 -0.463026 -1.336612 
ODOM 3.265054 -0.463026 -1.336612 
ROBOTLASER1 0 -1.570796 3.141593 0.017453 81.900000 0.010000 0 181 1.01 1.00 0.97 0.97 0.98 0.96 0.98 0.98 0.98 1.00 1.00 1.05 2.23 81.91 81.91 81.91 1.19 1.24 1.42 1.36 1.27 1.24 1.19 1.13 1.10 1.06 1.02 0.98 0.95 0.93 0.93 81.91 81.91 81.91 81.91 81.91 81.91 81.91 81.91 81.91 81.91 81.91 81.91 1.15 1.17 1.18 1.19 2.80 2.15 2.85 2.07 2.04 2.03 2.00 1.99 1.96 1.95 1.93 1.91 1.90 1.89 1.87 1.86 1.91 3.28 3.26 3.23 3.21 3.17 3.18 2.56 2.63 2.52 2.89 3.00 2.99 3.00 3.00 2.98 2.97 2.96 2.94 2.94 2.95 2.95 2.95 2.96 2.96 2.95 2.95 3.04 3.03 3.03 1.37 1.37 1.39 81.91 3.08 3.09 3.10 3.12 3.03 3.04 3.07 2.97 2.78 2.23 2.12 2.09 2.20 2.33 3.20 3.22 3.25 3.28 3.31 2.96 2.89 2.80 2.72 2.65 2.59 2.52 2.45 2.40 2.34 2.30 2.25 2.21 2.16 1.68 1.57 1.96 2.00 1.96 1.95 1.92 1.89 1.87 1.84 1.82 1.79 1.78 1.75 1.73 1.72 1.70 1.68 1.66 1.65 1.63 1.62 1.60 1.59 1.58 1.58 1.56 1.55 1.55 1.53 1.52 1.51 1.51 1.50 1.49 1.48 1.47 1.46 1.46 1.46 1.46 1.45 1.45 1.46 1.46 1.45 1.45 1.39 1.17 1.18 1.18 0 3.311194 -0.805143 -1.545376 
ODOM 3.311194 -0.805143 -1.545376 
ROBOTLASER1 0 -1.570796 3.141593 0.017453 81.900000 0.010000 0 181 2.57 2.56 2.56 1.03 0.95 0.96 0.98 0.96 0.97 0.97 0.99 1.07 2.57 2.57 2.58 2.57 81.91 81.91 1.15 1.62 1.48 1.35 1.25 1.19 1.11 1.04 0.99 0.95 0.90 0.86 0.90 81.91 81.91 81.91 81.91 81.91 81.91 81.91 81.91 81.91 81.91 81.91 81.91 81.91 81.91 81.91 81.91 1.08 1.09 1.11 3.54 2.10 2.13 2.96 2.70 2.43 2.06 1.93 1.90 1.88 1.86 1.84 1.82 1.80 1.79 1.77 1.76 1.74 1.73 1.72 1.75 1.84 3.15 3.13 3.10 3.08 3.02 3.04 2.52 2.39 2.42 2.42 2.85 2.85 2.85 2.85 2.84 2.83 2.82 2.80 2.79 2.79 2.79 2.77 2.77 2.78 2.78 2.78 2.79 2.78 2.88 2.88 2.88 81.91 81.91 1.23 1.21 2.92 2.93 2.95 2.96 2.84 2.87 2.89 2.88 2.81 2.30 2.08 1.97 1.94 2.02 2.22 3.06 3.09 3.13 3.15 3.17 2.88 2.77 2.69 2.62 2.56 2.49 2.43 2.37 2.32 2.27 2.22 2.18 2.13 2.10 2.06 2.02 1.99 1.46 1.45 1.84 1.87 1.85 1.82 1.80 1.78 1.75 1.74 1.72 1.70 1.69 1.66 1.65 1.63 1.62 1.61 1.60 1.58 1.57 1.56 1.55 1.54 1.53 1.53 1.52 1.51 1.50 1.49 1.49 1.48 1.48 1.48 1.46 1.47 1.46 0 3.312716 -0.898394 -1.739226 
ODOM 3.312716 -0.898394 -1.739226 
ROBOTLASER1 0 -1.570796 3.141593 0.017453 81.900000 0.010000 0 181 4.68 6.89 7.10 7.24 6.90 7.18 6.18 2.62 2.56 2.58 2.58 2.57 2.56 2.56 1.00 1.00 0.98 0.98 0.96 0.96 0.97 0.98 1.00 1.00 1.02 2.56 2.57 2.57 81.91 81.91 1.14 1.68 1.46 1.34 1.25 1.18 1.10 1.03 0.99 0.96 0.89 0.86 81.91 81.91 81.91 81.91 81.91 81.91 81.91 81.91 81.91 81.91 81.91 81.91 81.91 81.91 81.91 81.91 1.06 1.06 1.06 1.09 3.53 2.10 3.65 2.87 2.30 2.65 2.05 1.92 1.90 1.88 1.86 1.83 1.82 1.79 1.78 1.77 1.75 1.73 1.71 1.70 1.75 1.82 3.14 3.12 3.10 3.07 3.02 3.04 2.51 2.37 2.40 2.40 2.85 2.84 2.84 2.84 2.84 2.83 2.81 2.80 2.79 2.78 2.78 2.76 2.76 2.76 2.76 2.76 2.76 2.77 2.86 2.87 2.87 2.90 81.91 1.22 1.21 2.92 2.92 2.93 2.94 2.84 2.86 2.87 2.87 2.83 2.30 2.08 1.96 1.94 2.02 2.20 3.05 3.08 3.12 3.14 3.17 2.88 2.75 2.68 2.61 2.54 2.49 2.42 2.36 2.31 2.26 2.21 2.17 2.12 2.09 2.05 2.02 1.97 1.45 1.44 1.80 1.85 1.85 1.81 1.79 1.77 1.75 1.73 1.71 1.69 1.67 1.66 1.64 1.63 1.61 1.60 1.59 1.58 1.56 1.56 1.54 1.53 1.53 0 3.312617 -0.898869 -1.952584 
ODOM 3.312617 -0.898869 -1.952584 
ROBOTLASER1 0 -1.570796 3.141593 0.017453 81.900000 0.010000 0 181 2.98 3.50 4.63 4.59 4.75 4.84 4.81 4.78 4.95 4.74 4.73 4.71 4.69 6.88 7.08 7.25 6.90 7.17 6.19 2.59 2.55 2.58 2.57 2.56 1.07 1.00 1.00 1.00 0.98 0.99 0.97 0.97 0.99 0.99 0.99 1.02 1.03 1.12 2.57 2.57 81.91 1.16 1.15 1.69 1.47 1.36 1.25 1.18 1.11 1.04 0.99 0.94 0.89 0.86 0.90 81.91 81.91 81.91 81.91 81.91 81.91 81.91 81.91 81.91 81.91 81.91 81.91 81.91 81.91 1.06 1.04 1.05 1.06 1.07 3.53 2.08 2.17 2.86 2.12 2.68 2.03 1.92 1.91 1.88 1.85 1.83 1.83 1.80 1.78 1.77 1.75 1.73 1.71 1.70 1.75 1.83 3.14 3.12 3.10 3.07 3.02 3.03 2.50 2.41 2.39 2.45 2.86 2.84 2.84 2.84 2.83 2.81 2.81 2.79 2.79 2.78 2.77 2.76 2.76 2.76 2.76 2.76 2.77 2.78 2.87 2.87 2.89 81.91 81.91 1.23 81.91 2.93 2.92 2.94 2.95 2.85 2.86 2.88 2.88 2.86 2.23 2.08 1.95 1.94 2.03 2.19 3.04 3.08 3.12 3.13 3.17 2.84 2.75 2.67 2.61 2.53 2.47 2.41 2.35 2.30 2.25 2.21 2.16 2.11 2.08 2.04 2.01 1.97 1.44 1.44 1.83 1.85 1.84 1.81 1.80 1.77 1.75 1.72 1.71 1.68 1.68 0 3.312113 -0.899775 -2.174600 
ODOM 3.312113 -0.899775 -2.174600 
ROBOTLASER1 0 -1.570796 3.141593 0.017453 81.900000 0.010000 0 181 3.31 3.41 4.05 4.04 4.03 3.97 3.91 3.84 3.80 2.84 2.85 2.86 2.97 3.50 4.64 4.60 4.73 4.85 4.80 4.78 4.94 4.75 4.73 4.70 4.68 6.88 7.04 7.25 6.94 7.17 6.19 2.62 2.56 2.58 2.58 2.57 2.56 1.06 1.01 1.00 0.99 0.99 0.98 0.97 0.99 0.99 1.01 1.01 2.56 2.56 2.58 2.56 81.91 1.16 1.15 1.71 1.49 1.36 1.26 1.18 1.10 1.04 0.99 0.94 0.89 0.87 0.93 0.93 81.91 81.91 81.91 81.91 81.91 81.91 81.91 81.91 81.91 81.91 1.06 1.03 1.05 1.06 1.03 1.05 1.05 1.08 3.53 2.10 2.13 2.87 2.60 2.55 2.01 1.93 1.90 1.88 1.85 1.84 1.82 1.81 1.79 1.77 1.75 1.74 1.72 1.71 1.76 1.82 3.15 3.13 3.10 3.08 3.02 3.03 2.52 2.37 2.40 2.45 2.87 2.83 2.84 2.84 2.84 2.83 2.82 2.81 2.80 2.78 2.77 2.76 2.76 2.76 2.77 2.77 2.77 2.78 2.86 2.87 81.91 1.17 81.91 1.23 81.91 2.94 2.92 2.93 2.94 2.84 2.86 2.88 2.88 2.85 2.25 2.06 1.95 1.92 2.03 2.17 3.04 3.08 3.12 3.12 3.16 2.82 2.74 2.67 2.61 2.54 2.46 2.40 2.35 2.30 2.25 2.21 2.16 2.13 2.09 2.04 2.01 1.96 1.89 0 3.311566 -0.900491 -2.363148 
ODOM 3.311566 -0.900491 -2.363148 
ROBOTLASER1 0 -1.570796 3.141593 0.017453 81.900000 0.010000 0 181 2.59 2.78 2.81 2.67 2.67 2.67 2.96 3.01 3.06 3.11 3.17 3.21 3.31 4.03 4.07 4.03 4.03 3.96 3.90 3.85 3.79 2.83 2.84 2.86 3.03 3.49 4.63 4.61 4.77 4.84 4.80 4.78 4.91 4.74 4.75 4.70 4.71 6.88 7.16 7.24 6.89 7.18 6.19 2.58 2.56 2.59 2.58 2.58 1.08 1.03 1.01 0.99 0.99 1.00 0.99 0.99 0.99 1.00 1.01 1.02 2.57 2.57 2.58 81.91 81.91 1.16 1.16 1.62 1.45 1.34 1.24 1.17 1.09 1.01 0.97 0.91 0.88 0.84 0.91 0.92 0.92 0.93 81.91 81.91 81.91 0.98 81.91 81.91 0.99 1.02 1.03 1.04 1.02 1.01 1.03 1.05 1.06 1.12 3.54 2.11 3.67 2.77 2.10 2.69 1.99 1.92 1.89 1.86 1.84 1.83 1.81 1.79 1.77 1.76 1.74 1.72 1.72 1.72 1.76 3.15 3.14 3.11 3.09 3.07 3.01 3.03 2.39 2.45 2.36 2.55 2.90 2.86 2.85 2.83 2.82 2.80 2.79 2.77 2.76 2.76 2.76 2.77 2.78 2.79 2.78 2.80 2.82 2.84 2.87 2.87 81.91 1.16 1.21 1.22 81.91 2.93 2.93 2.94 2.94 2.85 2.88 2.91 2.91 2.79 2.13 2.03 1.93 1.93 2.13 2.99 3.06 3.09 3.09 3.14 3.18 2.79 2.73 2.66 2.58 2.52 2.51 0 3.311187 -0.900794 -2.583711 
ODOM 3.311187 -0.900794 -2.583711 
ROBOTLASER1 0 -1.570796 3.141593 0.017453 81.900000 0.010000 0 181 2.89 2.93 2.95 2.87 2.39 2.69 2.61 2.57 1.64 2.64 2.68 2.70 2.62 2.78 2.81 2.67 2.67 2.68 2.96 3.01 3.06 3.11 3.17 3.21 3.31 3.66 4.07 4.02 4.01 3.95 3.89 3.85 3.80 2.83 2.85 2.87 3.04 3.50 4.64 4.61 4.79 4.84 4.81 4.78 4.93 4.75 4.74 4.71 4.72 6.89 7.14 7.25 6.91 7.18 6.18 2.57 2.57 2.58 2.59 2.57 1.06 1.03 1.02 1.01 1.00 0.99 1.00 0.99 1.01 1.01 1.01 1.03 1.04 2.57 2.57 81.91 81.91 1.16 1.14 1.58 1.45 1.33 1.23 1.15 1.07 1.02 0.96 0.91 0.86 0.85 0.87 0.90 0.93 0.93 0.97 81.91 0.98 81.91 81.91 1.01 1.02 1.03 1.05 1.06 1.05 1.03 1.03 1.05 1.07 3.53 3.53 2.09 3.66 2.76 2.11 2.69 1.99 1.91 1.89 1.86 1.84 1.82 1.81 1.79 1.78 1.76 1.74 1.73 1.72 1.72 1.78 3.15 3.14 3.11 3.08 3.06 3.00 3.02 2.37 2.47 2.35 2.56 2.89 2.87 2.85 2.82 2.81 2.79 2.77 2.76 2.76 2.76 2.76 2.77 2.77 2.78 2.79 2.81 2.82 2.85 2.87 2.88 81.91 1.14 1.19 1.21 81.91 2.92 2.93 2.93 2.94 2.84 2.88 2.92 2.82 2.72 2.11 2.02 1.92 1.92 1.93 0 3.311187 -0.900794 -2.803272 
ODOM 3.311187 -0.900794 -2.803272 
ROBOTLASER1 0 -1.570796 3.141593 0.017453 81.900000 0.010000 0 181 2.74 2.75 1.98 1.99 1.98 2.79 1.52 2.81 2.84 1.87 2.83 1.79 2.89 2.94 2.95 2.90 2.41 2.71 2.63 2.57 1.92 2.64 2.66 2.69 2.65 2.76 2.81 2.67 2.66 2.67 2.96 3.01 3.06 3.11 3.17 3.20 3.32 3.50 4.06 4.04 4.03 3.96 3.92 3.86 3.81 2.84 2.85 2.87 3.04 3.50 4.65 4.61 4.76 4.85 4.81 4.80 4.97 4.76 4.74 4.71 4.70 6.89 7.08 7.25 6.93 7.18 6.21 2.57 2.57 2.60 2.59 2.58 2.57 2.56 2.57 2.56 2.56 2.55 2.55 2.55 2.55 2.55 2.56 2.57 2.57 2.58 2.57 81.91 81.91 1.18 1.16 1.62 1.44 1.32 1.23 1.15 1.07 1.01 0.96 0.91 0.86 0.88 0.89 0.93 0.93 81.91 81.91 81.91 81.91 81.91 81.91 81.91 81.91 81.91 81.91 81.91 81.91 1.08 1.08 1.09 81.91 3.50 3.53 2.11 2.14 2.81 2.10 2.70 2.04 1.92 1.90 1.87 1.86 1.84 1.81 1.80 1.77 1.76 1.74 1.73 1.73 1.73 1.78 3.16 3.14 3.11 3.09 3.07 3.00 3.02 2.37 2.46 2.35 2.50 2.88 2.86 2.86 2.84 2.82 2.79 2.78 2.77 2.76 2.75 2.76 2.75 2.75 2.77 2.78 2.79 2.79 2.83 2.87 2.87 81.91 1.15 1.19 1.22 81.91 2.94 2.92 0 3.311187 -0.900794 -2.996127 
ODOM 3.311187 -0.900794 -2.996127 
ROBOTLASER1 0 -1.570796 3.141593 0.017453 81.900000 0.010000 0 181 2.69 1.92 2.70 2.71 2.69 2.73 2.72 2.74 2.74 2.76 1.99 1.98 1.99 2.77 2.85 2.81 2.83 1.82 2.84 1.80 2.89 2.93 2.94 2.88 2.44 2.70 2.62 2.57 1.66 2.64 2.68 2.70 2.67 2.77 2.81 2.67 2.68 2.68 2.97 3.02 3.07 3.12 3.18 3.21 3.33 3.52 4.07 4.03 4.04 3.96 3.92 3.87 3.80 2.84 2.85 2.87 3.05 3.51 4.64 4.60 4.78 4.85 4.81 4.80 4.91 4.76 4.75 4.71 4.70 6.89 7.10 7.25 6.93 7.19 6.19 2.57 2.57 2.60 2.59 2.58 2.57 2.57 2.56 2.56 2.55 2.55 2.56 2.56 2.55 2.56 2.56 2.56 2.56 2.58 2.57 81.91 81.91 1.18 1.15 1.59 1.43 1.32 1.23 1.14 1.07 1.01 0.95 0.90 0.87 0.90 81.91 81.91 81.91 81.91 81.91 81.91 81.91 81.91 81.91 81.91 81.91 81.91 81.91 81.91 81.91 81.91 81.91 81.91 81.91 3.50 3.54 2.12 3.67 2.78 2.11 2.68 2.00 1.93 1.90 1.88 1.86 1.83 1.83 1.80 1.78 1.76 1.75 1.74 1.72 1.74 1.79 3.16 3.13 3.10 3.09 3.06 3.00 3.02 2.37 2.46 2.35 2.47 2.88 2.86 2.85 2.83 2.81 2.79 2.77 2.75 2.76 2.75 2.75 2.75 2.76 2.77 2.78 2.79 2.80 2.84 2.86 0 3.311187 -0.900794 3.133444 
ODOM 3.311187 -0.900794 3.133444 
ROBOTLASER1 0 -1.570796 3.141593 0.017453 81.900000 0.010000 0 181 2.71 2.71 2.71 2.70 2.70 2.19 2.70 2.68 2.69 2.69 2.69 2.70 2.68 1.97 2.70 2.70 2.69 2.71 2.71 2.73 2.74 2.75 1.99 1.97 1.99 2.77 1.49 2.81 2.83 1.84 2.84 1.82 2.89 2.93 2.94 2.89 2.51 2.70 2.61 2.57 1.67 2.65 2.69 2.70 2.52 2.78 2.81 2.68 2.67 2.67 2.97 3.03 3.08 3.12 3.18 3.23 3.34 3.55 4.09 4.03 4.03 3.96 3.91 3.87 3.80 2.84 2.85 2.87 3.06 3.50 4.64 4.61 4.78 4.85 4.81 4.79 4.93 4.75 4.74 4.71 4.70 6.89 7.07 7.26 6.93 7.19 6.20 2.56 2.57 2.59 2.59 2.58 2.57 2.57 2.56 2.56 2.55 2.55 2.55 2.56 2.56 2.56 2.56 2.57 2.56 2.57 2.56 81.91 81.91 1.17 2.20 1.56 1.42 1.31 1.21 1.14 1.06 1.00 0.95 0.90 0.87 81.91 81.91 81.91 81.91 81.91 81.91 81.91 81.91 81.91 81.91 81.91 81.91 81.91 81.91 81.91 81.91 81.91 81.91 81.91 81.91 3.49 3.54 2.11 2.13 2.73 2.11 2.51 2.01 1.91 1.89 1.87 1.84 1.82 1.80 1.79 1.76 1.75 1.74 1.72 1.72 1.73 1.77 3.14 3.13 3.10 3.08 3.06 3.00 3.01 2.35 2.45 2.34 2.77 2.89 2.86 2.84 2.83 2.79 2.78 2.77 0 3.309738 -0.900691 2.927176 
ODOM 3.309738 -0.900691 2.927176 
ROBOTLASER1 0 -1.570796 3.141593 0.017453 81.900000 0.010000 0 181 5.43 5.49 5.46 5.42 5.40 5.36 5.35 5.32 5.30 5.28 5.26 2.70 2.72 2.72 2.71 2.71 2.70 2.62 2.68 2.69 2.69 2.68 2.69 2.70 2.63 1.94 2.69 2.69 2.70 2.71 2.70 2.73 2.74 2.75 2.00 2.00 1.99 2.50 1.47 2.81 2.84 1.85 2.84 1.79 2.89 2.94 2.95 2.91 2.70 2.71 2.63 2.57 1.66 2.65 2.68 2.70 2.37 2.78 2.82 2.69 2.68 2.68 2.95 3.02 3.07 3.12 3.17 3.21 3.34 3.40 4.09 4.05 4.03 3.97 3.92 3.87 3.81 2.85 2.86 2.86 3.00 3.51 4.65 4.61 4.74 4.85 4.82 4.79 4.93 4.76 4.74 4.71 4.70 6.90 6.96 7.27 7.00 7.18 6.23 2.58 2.57 2.59 2.58 2.57 1.07 1.05 1.03 1.03 1.02 1.01 1.02 1.02 1.02 1.03 1.04 1.06 1.09 2.56 2.56 81.91 81.91 1.15 1.12 1.70 1.44 1.32 1.22 1.13 1.06 1.00 0.96 0.90 0.86 81.91 81.91 81.91 81.91 81.91 81.91 81.91 81.91 81.91 81.91 81.91 81.91 81.91 81.91 81.91 81.91 81.91 81.91 81.91 81.91 3.49 3.52 2.13 3.65 2.80 2.13 2.35 2.05 1.91 1.88 1.86 1.84 1.82 1.80 1.78 1.77 1.76 1.73 1.72 1.71 1.71 1.76 1.83 3.14 3.10 3.08 3.06 3.06 0 3.309281 -0.900527 2.720031 
ODOM 3.309281 -0.900527 2.720031 
ROBOTLASER1 0 -1.570796 3.141593 0.017453 81.900000 0.010000 0 181 3.23 3.19 3.17 3.14 2.86 2.91 3.08 5.74 5.68 5.03 4.92 5.26 5.44 5.49 5.46 5.42 5.40 5.37 5.34 5.32 5.30 5.28 5.26 2.70 2.71 2.70 2.70 2.70 2.70 2.13 2.69 2.69 2.69 2.68 2.10 2.49 2.69 2.09 2.70 2.69 2.71 2.72 2.72 2.74 2.75 2.69 1.99 1.98 2.00 2.79 2.83 2.82 2.83 1.80 2.85 1.96 2.90 2.93 2.95 2.88 2.64 2.69 2.62 2.57 2.57 2.65 2.68 2.70 2.70 2.78 2.82 2.68 2.68 2.68 2.97 3.03 3.08 3.13 3.17 3.23 3.32 4.01 4.09 4.04 4.04 3.97 3.91 3.86 3.80 2.84 2.85 2.87 3.06 3.51 4.64 4.61 4.77 4.85 4.82 4.79 4.97 4.78 4.75 4.71 4.71 6.90 7.06 7.25 6.94 7.16 6.21 2.56 2.57 2.58 2.56 1.08 1.06 1.04 1.04 1.03 1.02 1.03 1.03 1.02 1.03 1.04 1.04 1.06 1.10 2.57 2.55 81.91 81.91 1.17 2.00 1.53 1.39 1.28 1.19 1.12 1.05 1.00 0.94 0.87 0.87 81.91 81.91 81.91 81.91 81.91 81.91 81.91 81.91 81.91 81.91 81.91 81.91 81.91 81.91 81.91 81.91 81.91 81.91 81.91 81.91 3.48 2.07 2.10 3.66 2.70 2.09 2.06 1.94 1.90 1.89 1.86 1.83 1.82 1.80 1.78 1.78 0 3.309281 -0.900527 2.510391 
ODOM 3.309281 -0.900527 2.510391 
ROBOTLASER1 0 -1.570796 3.141593 0.017453 81.900000 0.010000 0 181 2.83 2.88 2.92 2.96 2.28 2.31 2.35 3.28 3.21 3.24 2.94 3.26 3.25 3.22 3.17 3.15 2.86 2.92 3.07 5.72 5.67 4.99 4.92 5.29 5.44 5.48 5.45 5.42 5.39 5.37 5.34 5.32 5.31 5.28 5.26 2.71 2.72 2.71 2.71 2.70 2.70 2.08 2.70 2.70 2.70 2.70 2.07 2.54 2.69 2.13 2.70 2.64 2.71 2.72 2.73 2.74 2.75 2.26 1.99 1.98 2.00 2.80 2.84 2.82 2.82 1.81 2.83 2.05 2.90 2.94 2.95 2.87 2.73 2.69 2.61 2.58 2.64 2.66 2.69 2.70 2.75 2.79 2.83 2.68 2.68 2.68 2.98 3.03 3.07 3.12 3.17 3.24 3.32 4.05 4.09 4.02 4.03 3.97 3.90 3.85 3.80 2.84 2.85 2.88 3.07 3.53 4.64 4.61 4.78 4.84 4.81 4.78 4.97 4.77 4.75 4.71 4.70 6.89 7.07 7.25 6.93 7.17 6.20 2.57 2.58 2.59 2.57 1.09 1.07 1.05 1.03 1.03 1.02 1.03 1.03 1.02 1.02 1.04 1.06 1.07 1.11 2.57 2.56 81.91 81.91 1.15 2.04 1.52 1.37 1.27 1.18 1.10 1.03 0.98 0.93 0.87 0.85 81.91 81.91 81.91 81.91 81.91 81.91 81.91 81.91 81.91 81.91 81.91 81.91 81.91 81.91 81.91 81.91 81.91 81.91 81.91 81.91 3.47 2.08 2.09 2.09 0 3.308892 -0.900238 2.288073 
ODOM 3.308892 -0.900238 2.288073 
ROBOTLASER1 0 -1.570796 3.141593 0.017453 81.900000 0.010000 0 181 1.70 1.74 1.75 1.77 1.79 1.80 1.82 2.28 2.27 2.45 2.44 2.77 2.82 2.88 2.94 2.44 2.27 2.31 2.35 3.28 3.22 3.25 2.92 3.25 3.23 3.20 3.17 3.14 2.85 2.92 3.07 5.72 5.67 5.00 4.92 5.29 5.44 5.49 5.45 5.42 5.40 5.36 5.35 5.32 5.30 5.28 5.26 2.69 2.72 2.71 2.71 2.70 2.69 2.11 2.70 2.70 2.70 2.69 2.03 2.61 2.68 2.18 2.70 2.13 2.71 2.72 2.73 2.74 2.75 2.18 1.98 1.98 2.01 2.79 2.83 2.81 2.83 1.84 2.12 2.86 2.90 2.94 2.94 2.87 2.71 2.68 2.60 2.58 1.65 2.65 2.68 2.70 2.73 2.79 2.82 2.68 2.67 2.68 2.97 3.02 3.07 3.12 3.17 3.24 3.32 4.04 4.09 4.02 4.03 3.96 3.90 3.84 3.80 2.83 2.85 2.86 3.07 3.53 4.64 4.61 4.78 4.84 4.81 4.78 4.97 4.79 4.74 4.71 4.72 6.88 7.03 7.25 6.91 7.12 6.22 2.55 2.56 2.57 2.55 1.08 1.06 1.04 1.03 1.02 1.02 1.02 1.01 1.03 1.02 1.04 1.04 1.06 1.10 2.56 2.55 81.91 81.91 1.15 1.99 1.51 1.37 1.26 1.17 1.10 1.02 0.96 0.91 0.87 0.85 81.91 81.91 81.91 81.91 81.91 81.91 81.91 81.91 81.91 81.91 81.91 81.91 0 3.308818 -0.900114 2.095691 
ODOM 3.308818 -0.900114 2.095691 
ROBOTLASER1 0 -1.570796 3.141593 0.017453 81.900000 0.010000 0 181 1.25 1.26 1.27 1.29 1.30 1.31 1.33 1.34 1.36 1.37 1.43 1.70 1.71 1.74 1.76 1.78 1.79 1.80 1.84 2.29 2.27 2.44 2.44 2.78 2.83 2.88 2.93 2.38 2.27 2.31 2.36 3.28 3.21 3.25 2.94 3.27 3.23 3.19 3.16 3.07 2.86 2.92 3.07 5.72 5.68 4.99 4.95 5.30 5.45 5.48 5.44 5.42 5.39 5.36 5.34 5.32 5.30 5.28 2.76 2.70 2.72 2.71 2.71 2.70 2.69 2.19 2.69 2.70 2.70 2.70 2.00 2.65 1.96 2.68 2.70 2.10 2.71 2.72 2.73 2.74 2.74 2.15 1.99 1.97 2.07 1.49 2.82 2.81 2.82 2.02 1.92 2.87 2.90 2.94 2.94 2.86 2.69 2.67 2.59 2.59 2.61 2.66 2.68 2.54 2.75 2.79 2.82 2.67 2.68 2.69 2.97 3.02 3.08 3.13 3.17 3.26 3.31 4.06 4.08 4.02 4.03 3.95 3.90 3.85 3.79 2.84 2.84 2.87 3.10 3.55 4.63 4.61 4.79 4.83 4.81 4.78 5.00 4.77 4.75 4.70 4.73 6.88 7.05 7.23 6.89 7.09 6.22 2.55 2.56 2.56 1.10 1.06 1.05 1.03 1.03 1.02 1.02 1.02 1.02 1.03 1.02 1.03 1.04 1.07 1.12 2.56 2.57 81.91 1.21 1.15 1.88 1.48 1.36 1.25 1.16 1.08 1.01 0.95 0.90 0.86 0.85 0 3.308645 -0.899821 1.878973 
ODOM 3.308645 -0.899821 1.878973 
ROBOTLASER1 0 -1.570796 3.141593 0.017453 81.900000 0.010000 0 181 1.22 1.19 1.18 1.19 1.20 1.20 1.22 1.22 1.23 1.24 1.24 1.25 1.27 1.28 1.29 1.30 1.31 1.32 1.33 1.34 1.36 1.37 1.46 1.68 1.71 1.73 1.74 1.77 1.79 1.81 1.86 2.29 2.27 2.44 2.44 2.79 2.84 2.88 2.94 2.39 2.28 2.32 2.36 3.28 3.22 3.26 2.93 3.27 3.24 3.20 3.16 3.05 2.86 2.92 3.08 5.72 5.67 4.99 4.94 5.30 5.46 5.48 5.45 5.41 5.39 5.36 5.34 5.32 5.30 5.29 2.76 2.70 2.72 2.71 2.70 2.70 2.69 2.25 2.70 2.70 2.70 2.70 1.97 2.66 2.02 2.69 2.69 2.08 2.72 2.72 2.73 2.74 2.75 2.14 1.98 1.98 2.08 1.49 2.81 2.81 1.82 2.06 1.91 2.87 2.90 2.94 2.94 2.86 2.70 2.67 2.60 2.57 2.61 2.65 2.68 2.62 2.75 2.78 2.82 2.66 2.67 2.69 2.98 3.02 3.09 3.14 3.17 3.27 3.31 4.06 4.08 4.01 4.02 3.95 3.90 3.85 3.78 2.83 2.85 2.87 3.11 3.55 4.63 4.61 4.80 4.84 4.80 4.77 5.00 4.78 4.75 4.70 4.73 6.87 7.03 7.22 6.89 6.99 6.23 2.55 2.56 2.57 1.09 1.07 1.05 1.03 1.02 1.01 1.01 1.02 1.03 1.02 1.02 1.02 1.05 1.07 1.09 2.56 81.91 81.91 81.91 0 3.308645 -0.899821 1.660039 
ODOM 3.308645 -0.899821 1.660039 
ROBOTLASER1 0 -1.570796 3.141593 0.017453 81.900000 0.010000 0 181 1.44 1.44 1.52 1.43 1.43 1.43 1.45 1.45 1.45 1.45 1.45 1.40 1.22 1.19 1.19 1.20 1.20 1.21 1.21 1.22 1.22 1.23 1.23 1.24 1.26 1.27 1.28 1.29 1.30 1.31 1.32 1.34 1.35 1.37 1.43 1.68 1.71 1.73 1.74 1.76 1.78 1.80 1.82 2.26 2.23 2.45 2.44 2.72 2.80 2.86 2.91 2.96 2.27 2.29 2.33 3.25 3.24 3.20 3.05 3.16 3.23 3.20 3.17 3.15 2.85 2.89 2.98 5.73 5.69 5.47 4.91 5.16 5.41 5.49 5.45 5.42 5.39 5.36 5.34 5.32 5.30 5.28 5.26 2.74 2.70 2.70 2.69 2.69 2.70 2.21 2.68 2.69 2.67 2.68 1.78 2.65 2.68 1.93 2.69 2.69 2.03 2.70 2.68 2.71 2.73 2.74 1.99 1.97 1.96 2.13 1.48 2.80 2.81 1.91 1.93 1.83 2.86 2.89 2.91 2.92 2.83 2.71 2.64 2.56 2.56 2.61 2.65 2.67 2.42 2.74 2.78 2.72 2.65 2.65 2.70 2.97 3.02 3.07 3.13 3.16 3.33 3.30 4.04 4.06 3.99 3.98 3.92 3.87 3.81 3.06 2.82 2.83 2.87 3.16 3.58 4.60 4.64 4.81 4.80 4.77 4.78 4.91 4.73 4.72 4.69 4.75 6.85 7.13 7.21 6.94 7.08 6.15 2.55 2.56 2.57 2.55 1.06 1.04 1.02 1.01 1.01 0 3.311597 -0.852185 1.449723 
ODOM 3.311597 -0.852185 1.449723 
ROBOTLASER1 0 -1.570796 3.141593 0.017453 81.900000 0.010000 0 181 1.47 1.47 1.46 1.45 1.44 1.43 1.43 1.46 1.42 1.41 1.41 1.42 1.42 1.42 1.42 1.42 1.16 1.14 1.15 1.14 1.14 1.14 1.15 1.15 1.16 1.16 1.17 1.17 1.17 1.17 1.18 1.19 1.20 1.21 1.21 1.22 1.23 1.24 1.25 1.26 1.30 1.56 1.58 1.58 1.60 1.61 1.63 1.65 1.66 1.67 1.69 2.05 2.13 2.12 2.32 2.30 2.35 2.63 2.68 2.73 2.78 2.19 2.13 2.16 2.21 3.06 3.12 3.04 3.09 2.81 3.10 3.07 3.04 2.99 2.97 2.69 2.73 2.86 5.59 5.54 5.49 4.82 4.75 5.09 5.25 5.31 5.27 5.24 5.21 5.19 5.16 5.14 5.12 5.10 5.06 2.52 2.54 2.54 2.53 2.52 2.52 2.51 2.01 2.51 2.51 2.50 2.51 2.50 81.91 2.50 1.81 2.51 2.52 1.95 2.53 2.54 2.54 2.55 2.57 2.58 1.83 1.80 1.82 1.97 2.65 81.91 2.66 2.67 1.78 1.77 1.78 2.76 2.77 2.79 2.69 2.42 2.52 2.45 2.42 2.44 2.50 2.53 2.56 2.59 2.17 2.66 2.56 2.54 2.54 2.60 2.88 2.93 2.99 3.05 3.08 3.22 3.29 3.96 3.91 3.91 3.84 3.80 3.75 3.70 3.65 2.73 2.76 2.78 3.03 4.54 4.56 4.76 4.76 4.73 4.72 4.83 4.68 4.74 4.65 4.65 4.78 0 3.351291 -0.668748 1.238725 
ODOM 3.351291 -0.668748 1.238725 
ROBOTLASER1 0 -1.570796 3.141593 0.017453 81.900000 0.010000 0 181 1.50 1.49 1.47 1.46 1.45 1.44 1.42 1.41 1.40 1.41 1.39 1.37 1.37 1.38 1.37 1.36 1.10 1.08 1.08 1.07 1.06 1.06 1.06 1.05 1.05 1.05 1.05 1.05 1.05 1.05 1.05 1.06 1.06 1.06 1.07 1.08 1.08 1.09 1.09 1.10 1.11 1.11 1.11 1.16 1.38 1.39 1.40 1.41 1.41 1.42 1.43 1.44 1.45 1.46 1.47 1.48 1.49 1.51 1.99 1.92 1.94 1.92 2.14 2.10 2.09 2.34 2.41 2.44 2.49 2.52 1.93 1.91 1.93 1.95 2.78 2.83 2.88 2.82 2.82 2.54 2.82 2.86 2.81 2.78 2.75 2.53 2.43 2.47 2.58 5.37 5.32 5.28 5.23 4.50 4.58 4.87 4.99 5.04 5.00 4.98 4.94 4.93 4.91 4.88 4.87 4.84 4.82 4.80 2.26 2.27 2.28 2.27 2.27 2.27 2.26 2.26 1.76 2.27 2.27 2.27 2.26 2.27 2.27 2.22 81.91 2.27 1.62 2.29 2.30 1.75 1.83 2.14 2.34 2.35 2.37 2.38 1.98 1.63 1.62 1.63 1.73 2.45 2.47 2.49 2.50 81.91 2.54 1.43 2.61 1.46 2.53 2.46 2.40 1.90 2.28 2.28 2.32 2.36 2.39 2.43 2.46 1.54 1.86 2.39 2.42 2.43 2.46 2.81 2.88 2.95 2.99 3.16 3.15 3.88 3.86 3.82 3.77 3.74 3.69 3.65 3.65 0 3.459231 -0.428129 1.022990 
ODOM 3.459231 -0.428129 1.022990 
ROBOTLASER1 0 -1.570796 3.141593 0.017453 81.900000 0.010000 0 181 0.87 0.86 0.85 0.84 0.84 0.84 0.83 0.83 0.82 0.81 0.81 0.80 0.79 0.79 0.78 0.78 0.77 0.76 0.76 0.73 0.73 0.73 0.73 0.72 0.73 0.73 0.84 0.97 81.91 81.91 81.91 81.91 1.25 1.26 1.27 1.27 1.27 1.29 1.29 1.30 1.28 1.09 1.05 1.05 1.04 1.03 1.08 1.15 1.34 1.36 1.31 1.17 1.16 1.16 1.17 1.39 1.42 1.43 1.44 1.45 1.47 1.38 0.95 0.91 0.91 0.92 0.92 0.94 0.96 0.97 1.65 1.67 1.70 1.72 1.76 1.79 1.81 1.86 1.86 1.79 1.78 1.61 1.49 1.78 1.82 1.83 1.81 1.78 1.76 1.75 1.73 1.70 1.55 1.42 1.42 1.45 1.49 1.64 4.25 4.22 3.60 3.48 3.59 3.90 4.01 4.07 4.03 4.02 4.01 3.99 3.97 3.95 3.94 3.94 3.93 3.92 3.92 3.91 3.90 3.90 3.90 3.89 3.90 3.90 3.90 3.90 3.90 3.90 3.91 3.93 1.47 1.42 1.42 1.46 1.46 1.47 1.47 1.48 1.49 1.49 1.50 1.51 1.52 1.53 1.54 1.55 1.56 1.58 1.59 1.59 1.61 1.63 1.65 1.66 1.68 1.69 1.44 1.74 1.72 1.80 1.81 1.85 1.88 1.91 1.94 1.97 2.00 2.03 2.08 2.11 2.11 2.16 2.19 2.24 2.28 1.08 2.45 2.39 1.61 1.36 1.36 0 4.096320 0.383724 1.019815 
ODOM 4.096320 0.383724 1.019815 
ROBOTLASER1 0 -1.570796 3.141593 0.017453 81.900000 0.010000 0 181 0.91 0.93 81.91 81.91 81.91 81.91 1.01 81.91 1.20 1.20 1.20 1.20 1.19 1.19 1.18 1.18 1.17 0.95 0.95 0.93 0.86 0.92 0.93 0.92 1.05 1.09 1.17 1.18 1.19 1.03 1.01 0.97 0.98 1.01 1.20 1.22 1.23 1.23 1.24 0.87 0.71 0.71 0.71 0.72 0.72 0.73 0.74 0.74 0.75 0.79 1.36 1.38 1.40 1.42 1.44 1.46 1.47 1.49 1.51 1.54 1.55 1.58 1.60 1.62 1.59 1.54 1.56 1.25 1.33 1.55 1.56 1.59 1.56 1.54 1.52 1.50 1.49 1.47 1.45 1.43 1.21 1.16 1.16 1.20 1.22 1.33 3.99 3.97 3.94 3.25 3.21 3.49 3.71 3.80 3.80 3.76 3.76 3.75 3.72 3.71 3.70 3.71 3.68 3.68 3.68 3.66 3.66 3.66 3.66 3.65 3.65 3.64 3.66 3.66 3.66 3.66 3.66 3.67 3.68 3.69 3.70 3.71 3.73 3.75 1.31 1.27 1.23 1.23 1.25 1.27 1.28 1.29 1.29 1.30 1.31 1.33 1.34 1.35 1.36 1.37 1.39 1.40 1.41 1.43 1.45 1.46 1.48 1.51 1.53 1.56 1.57 1.60 1.62 1.64 1.63 1.71 1.74 1.78 1.81 1.84 1.87 81.91 1.98 2.02 2.06 2.04 2.12 2.17 2.24 2.31 2.38 2.37 2.35 2.32 2.32 2.29 1.14 1.06 1.36 1.33 1.36 0 4.210635 0.609518 1.225664 
ODOM 4.210635 0.609518 1.225664 
ROBOTLASER1 0 -1.570796 3.141593 0.017453 81.900000 0.010000 0 181 0.60 0.59 0.59 0.59 0.59 0.59 0.59 0.59 0.58 0.58 0.59 0.74 1.09 1.10 1.06 0.61 0.61 0.72 1.10 1.11 1.12 1.13 1.14 1.14 1.15 1.16 1.16 1.17 1.17 1.19 1.20 1.22 1.22 1.24 1.26 1.25 1.27 1.28 1.28 1.32 1.32 1.34 1.36 1.32 0.97 1.01 1.29 1.32 1.31 1.26 1.26 1.30 1.28 1.25 1.22 1.21 1.20 1.17 1.16 1.14 1.12 0.86 0.84 0.84 0.86 0.88 0.89 0.93 1.01 1.04 3.72 3.69 3.65 3.63 3.60 2.99 2.89 2.96 3.21 3.38 3.46 3.46 3.42 3.42 3.40 3.39 3.38 3.37 3.36 3.35 3.35 3.34 3.33 3.34 3.34 3.32 3.32 3.33 3.32 3.33 3.33 3.33 3.33 3.34 3.34 3.35 3.36 3.37 3.37 3.37 3.39 3.40 3.42 3.44 3.45 3.47 3.50 3.52 3.54 3.58 1.04 1.01 0.99 0.96 0.94 0.95 1.00 1.00 1.02 1.03 1.04 1.05 1.06 1.07 1.09 1.11 1.12 1.14 1.15 1.17 1.19 1.20 1.22 1.25 1.27 1.29 1.32 1.34 1.37 1.41 1.43 1.47 1.51 1.54 1.59 1.47 1.70 1.74 1.80 1.86 1.94 1.94 2.00 2.06 2.14 2.25 2.30 2.29 2.28 2.27 2.25 81.91 2.23 2.23 2.22 2.21 2.19 2.44 1.38 1.36 1.35 0 4.296732 0.947649 1.428585 
ODOM 4.296732 0.947649 1.428585 
ROBOTLASER1 0 -1.570796 3.141593 0.017453 81.900000 0.010000 0 181 1.01 1.01 1.05 1.05 1.06 1.06 1.07 1.08 1.08 1.09 1.10 1.10 1.10 1.10 1.10 1.11 1.12 1.13 1.13 1.14 1.15 1.16 1.17 1.18 1.21 1.19 1.17 1.18 1.22 4.43 4.34 4.74 4.81 4.89 3.60 3.50 3.45 3.38 3.32 3.26 3.22 3.16 3.11 3.06 3.01 2.97 2.93 2.89 2.85 2.81 2.78 2.13 1.98 1.95 2.00 2.13 2.20 2.28 2.35 2.44 2.45 2.50 2.49 2.44 2.45 2.43 2.41 2.40 2.39 2.38 2.37 2.36 2.35 2.34 2.34 2.33 2.33 2.32 2.31 2.31 2.30 2.30 2.30 2.30 2.30 2.30 2.29 2.30 2.31 2.30 2.31 2.30 2.30 2.31 2.32 2.33 2.34 2.35 2.35 2.36 2.38 2.38 2.39 2.40 2.42 2.44 2.45 2.47 2.49 2.50 2.52 2.55 2.56 2.59 2.62 2.66 2.69 2.73 2.76 2.80 2.83 2.86 2.90 2.94 3.00 3.04 3.15 3.40 3.45 3.51 3.52 5.62 5.53 5.44 5.34 5.27 5.18 5.10 4.37 4.28 4.49 4.61 4.73 4.85 4.99 5.15 5.30 5.47 5.55 5.85 6.01 7.95 7.88 6.91 7.25 7.61 8.06 8.17 8.24 16.07 9.97 11.03 11.80 12.67 13.95 14.20 15.59 15.57 15.51 17.70 17.73 17.66 15.44 1.81 1.81 1.81 1.81 1.81 1.75 1.75 1.72 0 4.338843 1.956131 1.649896 
ODOM 4.338843 1.956131 1.649896 
ROBOTLASER1 0 -1.570796 3.141593 0.017453 81.900000 0.010000 0 181 1.11 1.11 1.12 1.13 1.14 1.16 1.16 1.12 1.14 1.14 4.75 4.55 4.38 4.29 4.32 4.37 4.35 4.29 4.70 4.77 3.60 3.43 3.39 3.32 3.25 3.19 3.14 3.08 3.02 2.97 2.93 2.87 2.83 2.80 2.75 2.71 2.67 1.88 1.84 1.86 1.98 2.04 2.11 2.17 2.24 2.32 2.32 2.40 2.37 2.35 2.33 2.31 2.30 2.29 2.27 2.26 2.25 2.23 2.22 2.22 2.21 2.20 2.19 2.18 2.18 2.18 2.16 2.16 2.16 2.16 2.16 2.16 2.16 2.15 2.15 2.16 2.16 2.16 2.17 2.16 2.16 2.17 2.17 2.18 2.19 2.20 2.21 2.22 2.23 2.24 2.25 2.26 2.28 2.28 2.30 2.31 2.33 2.35 2.37 2.39 2.41 2.43 2.46 2.49 2.52 2.57 2.59 2.63 2.65 2.69 2.72 2.75 2.79 2.84 2.88 2.93 3.19 3.31 3.35 3.41 3.50 5.43 5.34 5.26 5.17 5.10 5.00 4.93 4.18 4.22 4.43 4.56 4.70 4.84 4.98 5.15 5.33 5.39 5.58 5.90 7.52 7.82 6.90 7.04 7.48 7.98 8.11 8.11 9.83 9.91 11.14 11.91 12.70 14.00 15.56 15.57 15.54 17.88 17.70 17.70 17.72 15.45 15.45 7.82 7.80 1.89 1.78 1.79 1.79 1.79 1.79 1.73 1.74 1.71 1.63 1.51 1.43 1.32 1.09 1.02 1.00 0 4.319074 2.079980 1.859416 
ODOM 4.319074 2.079980 1.859416 
ROBOTLASER1 0 -1.570796 3.141593 0.017453 81.900000 0.010000 0 181 4.30 4.35 4.34 4.26 4.64 4.70 3.52 3.38 3.34 3.27 3.21 3.14 3.07 3.01 2.96 2.91 2.85 2.80 2.75 2.71 2.67 1.91 1.78 1.76 1.80 1.92 1.96 2.02 2.07 2.13 2.20 2.23 2.28 2.28 2.27 2.22 2.23 2.21 2.20 2.17 2.16 2.14 2.13 2.13 2.12 2.11 2.10 2.09 2.08 2.08 2.07 2.06 2.06 2.05 2.05 2.04 2.04 2.04 2.02 2.03 2.03 2.03 2.03 2.04 2.03 2.03 2.03 2.03 2.04 2.04 2.05 2.06 2.06 2.07 2.08 2.08 2.09 2.10 2.12 2.13 2.14 2.15 2.17 2.19 2.20 2.22 2.23 2.26 2.28 2.30 2.32 2.34 2.37 2.41 2.45 2.47 2.51 2.54 2.57 2.61 2.65 2.69 2.73 2.77 2.82 3.13 3.21 3.25 3.28 3.31 5.28 5.20 5.11 5.01 4.94 4.87 4.36 4.06 4.14 4.34 4.46 4.61 4.75 4.90 5.05 5.27 5.31 5.56 5.84 7.77 7.70 6.75 7.14 7.66 7.98 8.02 8.17 9.70 10.54 11.13 12.53 13.53 14.13 15.48 15.53 15.40 17.61 17.63 17.59 15.36 15.39 13.80 7.76 7.70 6.25 4.82 2.64 1.79 1.74 1.75 1.76 1.76 1.77 1.70 1.70 1.68 1.60 1.52 1.45 1.35 1.23 1.17 1.11 1.08 1.03 0.99 0.96 0.92 0.90 0.86 0.86 0 4.270618 2.202132 2.058221 
ODOM 4.270618 2.202132 2.058221 
ROBOTLASER1 0 -1.570796 3.141593 0.017453 81.900000 0.010000 0 181 2.82 2.76 2.71 1.86 1.74 1.74 1.79 1.85 1.90 1.94 1.98 2.03 2.08 2.12 2.17 2.18 2.21 2.19 2.16 2.14 2.12 2.09 2.07 2.06 2.04 2.03 2.01 2.00 1.98 1.98 1.97 1.95 1.94 1.93 1.92 1.93 1.92 1.90 1.91 1.90 1.88 1.88 1.87 1.88 1.88 1.88 1.88 1.87 1.86 1.86 1.88 1.88 1.87 1.88 1.87 1.88 1.87 1.87 1.88 1.89 1.90 1.90 1.92 1.92 1.93 1.94 1.95 1.96 1.97 1.98 1.99 2.01 2.03 2.04 2.06 2.07 2.09 2.12 2.14 2.17 2.20 2.24 2.27 2.29 2.32 2.36 2.38 2.41 2.45 2.49 2.53 2.57 2.62 2.75 2.99 3.04 3.10 3.10 5.06 4.98 4.91 4.84 4.77 4.71 4.65 4.02 3.88 4.06 4.19 4.32 4.46 4.60 4.76 4.94 5.11 5.19 5.49 5.74 7.55 6.74 6.57 7.11 7.64 7.83 7.86 9.55 9.63 10.97 11.93 13.34 13.81 15.35 15.36 15.29 17.50 17.50 17.51 15.28 15.39 15.24 13.67 7.63 7.59 6.15 4.80 4.74 3.86 3.35 2.50 2.13 1.77 1.66 1.67 1.67 1.69 1.69 1.67 1.64 1.64 1.61 1.56 1.50 1.44 1.36 1.30 1.27 1.22 1.18 1.15 1.11 1.08 1.05 1.03 1.01 0.99 0.95 0.95 0.91 0.91 0.89 0.89 0 4.163885 2.367071 2.261018 
ODOM 4.163885 2.367071 2.261018 
ROBOTLASER1 0 -1.570796 3.141593 0.017453 81.900000 0.010000 0 181 2.10 2.07 2.05 2.02 2.01 1.99 1.96 1.95 1.92 1.91 1.88 1.87 1.86 1.84 1.83 1.82 1.82 1.79 1.78 1.77 1.76 1.76 1.75 1.73 1.72 1.72 1.70 1.70 1.70 1.70 1.69 1.70 1.69 1.70 1.70 1.70 1.70 1.70 1.70 1.70 1.70 1.70 1.71 1.70 1.70 1.71 1.71 1.72 1.72 1.74 1.74 1.75 1.76 1.76 1.77 1.78 1.80 1.82 1.82 1.83 1.85 1.86 1.88 1.90 1.92 1.93 1.97 2.00 2.02 2.05 2.07 2.09 2.12 2.15 2.18 2.21 2.24 2.28 2.31 2.35 2.42 2.72 2.76 2.81 2.85 2.92 4.79 4.73 4.66 4.59 4.53 4.47 4.41 3.88 3.62 3.66 3.89 4.02 4.15 4.29 4.43 4.61 4.78 4.86 5.03 5.38 5.46 7.31 6.40 6.55 7.18 7.57 7.66 7.73 9.34 10.48 10.93 12.24 13.60 15.15 18.00 15.09 17.32 17.31 17.36 15.16 16.20 16.63 13.50 12.11 7.46 7.44 6.17 5.97 4.78 4.58 4.66 3.61 3.25 3.02 2.67 2.27 2.27 2.32 1.73 1.63 1.56 1.55 1.57 1.58 1.59 1.61 1.56 1.54 1.55 1.54 1.50 1.45 1.41 1.37 1.35 1.32 1.28 1.25 1.22 1.20 1.17 1.15 1.13 1.11 1.10 1.07 1.06 1.04 1.02 1.00 1.00 0.99 0.97 0.95 0.95 0 3.970131 2.562825 2.488897 
ODOM 3.970131 2.562825 2.488897 
ROBOTLASER1 0 -1.570796 3.141593 0.017453 81.900000 0.010000 0 181 1.72 1.71 1.70 1.67 1.66 1.65 1.63 1.63 1.63 1.62 1.61 1.60 1.59 1.59 1.59 1.58 1.58 1.58 1.57 1.56 1.56 1.57 1.57 1.57 1.57 1.56 1.56 1.56 1.56 1.56 1.56 1.57 1.57 1.58 1.58 1.59 1.60 1.60 1.61 1.62 1.63 1.63 1.64 1.65 1.66 1.68 1.68 1.70 1.71 1.73 1.76 1.77 1.79 1.81 1.83 1.84 1.87 1.88 1.91 1.94 1.95 1.98 2.01 2.04 2.07 2.10 2.14 2.44 2.49 2.53 2.57 2.60 2.69 4.68 4.62 4.54 4.46 4.39 4.32 4.26 4.21 3.52 3.36 3.42 3.61 3.73 3.87 4.01 4.16 4.29 4.45 4.61 4.67 4.95 5.22 7.07 6.27 6.11 6.62 7.12 7.37 7.40 9.12 9.35 10.53 11.96 12.94 13.39 14.89 17.85 14.85 17.06 17.06 17.11 14.86 16.18 14.85 13.29 10.43 7.28 7.26 6.76 5.81 5.48 4.85 4.38 4.45 4.49 3.44 3.19 2.92 2.82 2.67 2.25 2.11 2.11 2.15 2.11 1.77 1.57 1.52 1.46 1.41 1.41 1.42 1.43 1.45 1.48 1.47 1.42 1.43 1.44 1.43 1.40 1.37 1.34 1.31 1.29 1.28 1.25 1.22 1.21 1.19 1.18 1.16 1.14 1.13 1.11 1.10 1.09 1.08 1.06 1.05 1.04 1.02 1.02 1.01 1.01 0.99 0.98 0.98 0 3.769187 2.692781 2.680772 
ODOM 3.769187 2.692781 2.680772 
ROBOTLASER1 0 -1.570796 3.141593 0.017453 81.900000 0.010000 0 181 1.52 1.51 1.51 1.50 1.50 1.49 1.48 1.49 1.48 1.48 1.48 1.48 1.49 1.49 1.48 1.48 1.48 1.48 1.48 1.49 1.48 1.48 1.49 1.50 1.50 1.51 1.52 1.52 1.52 1.53 1.54 1.55 1.59 1.60 1.61 1.62 1.63 1.64 1.66 1.67 1.69 1.70 1.72 1.74 1.76 1.77 1.80 1.83 1.85 1.87 1.89 1.93 2.20 2.24 2.28 2.30 2.34 2.37 2.37 4.47 4.40 4.35 4.28 4.20 4.15 4.08 4.00 3.96 3.91 3.15 3.11 3.29 3.39 3.50 3.61 3.75 3.89 4.02 4.17 4.33 4.37 4.56 4.88 4.94 6.79 5.91 5.89 6.52 6.97 7.15 7.14 8.85 9.62 10.27 11.71 13.03 13.24 17.52 17.57 14.59 16.79 16.85 16.92 14.60 16.22 14.62 13.04 11.62 7.18 7.03 6.96 6.21 5.55 5.11 4.69 4.16 4.20 4.26 4.28 3.22 3.10 2.82 2.69 2.62 2.50 2.33 2.17 1.93 1.92 1.93 1.98 1.90 1.84 1.77 1.49 1.40 1.36 1.32 1.29 1.25 1.24 1.25 1.28 1.30 1.32 1.35 1.31 1.29 1.31 1.32 1.31 1.29 1.27 1.25 1.24 1.22 1.20 1.19 1.18 1.16 1.15 1.14 1.12 1.11 1.11 1.10 1.09 1.08 1.08 1.07 1.06 1.05 1.04 1.03 1.03 1.03 1.02 1.01 1.01 1.00 1.00 0 3.515719 2.792934 2.880272 
ODOM 3.515719 2.792934 2.880272 
ROBOTLASER1 0 -1.570796 3.141593 0.017453 81.900000 0.010000 0 181 1.43 1.43 1.42 1.42 1.42 1.42 1.43 1.43 1.44 1.54 1.62 1.87 1.66 1.65 1.67 1.67 1.68 1.69 1.69 1.69 1.71 1.72 1.73 1.70 1.71 7.59 7.25 6.77 5.05 6.57 6.36 4.38 4.26 4.13 4.00 3.90 3.79 3.70 3.59 3.52 3.44 3.36 3.30 3.23 3.15 2.27 2.25 2.32 2.41 2.45 2.51 2.57 2.61 2.67 2.73 2.80 2.88 2.94 3.02 3.10 3.18 3.29 3.38 3.39 3.51 3.68 3.86 3.95 5.47 5.59 5.47 4.84 4.96 5.37 5.75 6.07 6.15 6.12 7.68 7.81 8.88 9.26 10.63 11.69 12.10 13.61 13.61 13.58 15.79 15.79 15.81 15.94 13.55 13.61 13.56 12.00 10.67 9.13 6.26 6.02 6.01 5.68 5.18 4.58 4.52 4.16 3.89 3.64 3.45 3.16 3.19 3.27 3.30 3.32 3.33 3.37 2.36 2.28 2.21 2.12 2.06 1.95 1.90 1.83 1.80 1.74 1.74 1.69 1.64 1.60 1.58 1.54 1.51 1.49 1.42 1.34 1.34 1.34 1.33 1.32 1.31 1.23 1.13 1.13 1.17 1.23 1.22 1.20 1.20 1.18 1.16 1.15 1.14 1.12 1.12 1.11 1.10 1.09 1.08 1.08 1.07 1.06 1.05 1.05 1.04 1.02 1.01 0.98 0.85 0.85 0.85 0.84 0.84 0.83 0.84 0.84 0.84 0.83 0.83 0.83 0.83 0 2.495103 2.953675 3.030296 
ODOM 2.495103 2.953675 3.030296 
ROBOTLASER1 0 -1.570796 3.141593 0.017453 81.900000 0.010000 0 181 7.10 7.19 7.21 7.23 6.82 6.77 6.72 81.91 7.19 7.22 7.23 7.27 7.29 7.43 4.67 7.29 3.99 3.74 1.71 1.69 1.72 1.77 1.79 1.80 1.82 1.82 1.84 1.86 1.87 1.90 1.93 1.94 1.95 1.98 2.01 2.03 2.07 2.09 2.12 2.14 2.18 2.20 2.25 2.28 2.32 2.37 2.40 2.45 2.51 2.53 2.53 2.59 2.68 2.72 2.85 2.91 3.00 3.03 4.49 4.51 4.51 4.63 4.57 3.96 3.89 4.00 4.25 4.43 4.64 4.88 5.11 5.16 5.13 5.30 6.64 6.81 7.48 8.17 8.73 9.60 10.61 11.10 12.58 12.59 12.57 12.51 14.75 14.75 14.76 14.90 12.51 12.61 12.60 11.09 10.57 9.18 8.10 6.69 5.02 5.00 4.96 4.71 4.38 4.07 3.76 3.54 3.43 3.23 3.08 2.95 2.81 2.69 2.58 2.46 2.28 2.20 2.23 2.27 2.34 2.36 2.39 2.42 2.44 2.47 2.51 2.54 2.57 2.67 3.09 3.14 3.17 1.53 1.42 1.43 1.44 1.39 1.37 1.34 1.33 1.31 1.29 1.27 1.26 1.23 1.22 1.17 1.15 1.16 1.16 1.13 1.11 1.10 1.08 1.09 1.08 1.07 1.06 1.06 1.06 1.05 1.05 1.05 1.04 1.04 1.03 1.03 1.02 1.02 1.01 1.01 1.00 1.00 0.99 0.99 0.99 0.99 0.99 0.99 0.99 0.99 0.99 0 1.474080 3.059928 3.048704 
ODOM 1.474080 3.059928 3.048704 
ROBOTLASER1 0 -1.570796 3.141593 0.017453 81.900000 0.010000 0 181 1.68 1.69 1.70 1.70 1.71 1.71 1.72 1.73 1.74 1.75 1.76 1.76 1.76 1.78 1.79 1.80 1.81 1.82 1.85 1.86 1.87 1.88 1.91 1.92 1.94 1.96 1.98 2.01 2.03 2.05 2.08 2.12 2.13 2.18 2.15 2.17 2.21 2.24 2.30 2.33 2.42 2.46 2.52 2.57 2.64 2.63 5.16 4.42 4.07 4.08 4.07 4.12 7.29 3.49 3.43 3.47 3.70 3.85 4.00 4.14 4.33 4.51 4.61 4.66 4.63 4.78 6.01 6.33 6.31 7.03 7.66 8.05 8.86 10.06 10.50 10.65 12.06 12.06 12.05 12.00 14.24 14.23 14.22 12.15 12.01 12.04 12.05 10.61 10.09 9.00 7.59 6.94 6.10 4.48 4.48 4.45 4.27 3.95 3.70 3.48 3.28 3.04 3.00 2.85 2.73 2.62 2.52 2.41 2.31 2.24 2.15 2.09 2.02 1.96 1.90 1.75 1.74 1.78 1.82 1.89 1.92 1.94 1.98 1.99 2.03 2.06 2.10 2.13 2.16 2.71 2.79 2.82 2.91 5.22 5.46 3.81 3.76 3.87 4.43 4.08 3.87 3.92 1.11 1.09 1.08 1.09 1.11 1.19 1.08 1.06 1.05 1.04 1.04 1.04 1.02 1.02 1.02 1.01 1.01 1.00 1.00 0.99 0.98 1.00 1.01 0.94 0.93 0.94 0.96 0.95 0.94 0.93 0.94 0.94 0.94 0.94 0.96 0.93 0.94 0.94 0.94 0 0.969286 3.089595 -3.109449 
ODOM 0.969286 3.089595 -3.109449 
ROBOTLASER1 0 -1.570796 3.141593 0.017453 81.900000 0.010000 0 181 1.83 1.86 1.86 1.88 1.88 1.91 1.92 1.93 1.95 1.97 1.99 2.00 2.03 2.05 2.02 2.04 2.06 2.09 2.12 2.14 2.20 2.24 2.28 2.30 2.34 2.38 2.40 2.42 4.72 4.75 4.86 4.97 3.85 3.84 3.84 3.84 4.35 3.24 3.17 3.21 3.40 3.51 3.62 3.73 3.87 4.01 4.17 4.32 4.37 4.37 4.36 4.52 5.62 12.29 6.01 6.43 6.86 7.36 7.81 8.50 9.70 10.08 10.30 11.73 11.74 11.73 11.68 13.90 13.89 13.91 13.89 11.69 11.67 11.68 11.66 10.13 9.66 8.31 7.24 5.89 4.43 4.13 4.14 4.11 3.93 3.63 3.41 3.21 3.03 2.78 2.71 2.64 2.52 2.40 2.31 2.22 2.14 2.07 1.99 1.93 1.88 1.81 1.76 1.71 1.67 1.63 1.59 1.47 1.42 1.43 1.46 1.50 1.58 1.60 1.63 1.67 1.69 1.73 1.75 1.79 1.82 1.85 1.92 2.52 2.53 5.22 3.88 3.51 3.51 4.38 4.04 3.76 3.62 4.88 3.60 4.82 4.78 4.72 5.69 4.66 4.63 4.59 4.59 4.63 4.61 4.58 0.99 0.89 0.89 0.88 0.90 0.94 81.91 0.91 0.92 0.91 0.91 0.90 0.90 0.90 0.90 0.90 0.91 0.90 0.91 0.91 0.90 0.91 0.90 0.91 0.91 0.92 0.96 0.91 0.89 0.89 0.90 0.91 0.93 0.91 0.91 0 0.646159 3.053148 -2.897350 
ODOM 0.646159 3.053148 -2.897350 
ROBOTLASER1 0 -1.570796 3.141593 0.017453 81.900000 0.010000 0 181 2.12 2.18 2.20 2.23 2.25 2.28 2.31 2.34 2.34 2.36 5.76 5.83 4.69 4.62 4.70 4.80 3.74 3.71 3.71 3.71 3.87 3.07 3.04 3.20 3.27 3.36 3.46 3.56 3.66 3.80 3.91 4.06 4.17 4.23 4.19 4.18 4.33 5.29 5.53 12.16 5.83 6.28 6.66 7.13 7.31 8.02 8.58 9.52 9.98 10.14 11.51 11.54 11.51 11.46 13.67 13.67 13.67 13.68 11.44 11.44 11.44 11.43 9.87 9.42 7.90 6.98 5.60 3.93 3.89 3.91 3.85 3.57 3.32 3.11 2.91 2.74 2.47 2.45 2.38 2.27 2.17 2.08 1.99 1.92 1.86 1.80 1.74 1.68 1.63 1.59 1.54 1.50 1.46 1.42 1.40 1.35 1.33 1.21 1.19 1.18 1.20 1.23 1.33 1.36 1.39 1.42 1.44 1.47 1.50 1.54 1.56 1.60 1.62 1.66 2.02 3.69 3.46 3.30 3.31 4.15 3.81 3.52 3.41 3.63 3.38 4.61 4.58 4.55 5.48 4.48 4.45 4.43 4.48 4.45 4.45 4.42 4.24 81.91 4.55 6.41 6.43 4.14 4.05 3.86 4.11 4.07 0.90 0.89 0.88 0.84 0.77 0.77 0.77 0.78 3.19 3.16 0.81 0.81 0.81 0.81 0.81 0.81 0.82 0.82 0.83 0.83 0.84 0.85 0.85 0.86 0.86 0.87 0.87 0.87 0.88 0.90 0.93 0.89 0.89 0.89 0.89 0 0.398672 2.969614 -2.676189 
ODOM 0.398672 2.969614 -2.676189 
ROBOTLASER1 0 -1.570796 3.141593 0.017453 81.900000 0.010000 0 181 4.70 3.70 3.67 3.67 3.67 3.10 3.00 3.04 3.17 3.24 3.32 3.40 3.48 3.57 3.67 3.79 3.90 4.03 4.07 4.12 4.08 4.13 4.29 5.13 5.35 12.14 5.71 5.85 6.29 6.63 7.05 7.40 7.92 8.43 9.39 9.82 9.94 11.38 11.39 11.37 11.34 13.84 13.49 13.50 13.50 13.61 11.26 11.28 11.28 9.88 9.50 8.27 6.83 5.42 3.70 3.69 3.71 3.62 3.32 3.07 2.84 2.66 2.49 2.25 2.24 2.14 2.03 1.94 1.86 1.78 1.72 1.66 1.60 1.54 1.50 1.45 1.41 1.36 1.32 1.29 1.25 1.23 1.19 1.17 1.14 1.12 1.00 0.98 0.96 0.98 1.02 1.05 1.15 1.17 1.19 1.22 1.25 1.27 1.30 1.33 1.36 1.39 1.43 1.46 1.50 3.42 3.23 3.11 3.19 4.08 3.45 3.34 3.23 3.44 3.28 4.42 4.39 5.30 4.35 4.29 4.27 4.26 4.32 4.30 4.28 4.27 4.25 3.83 4.42 6.31 6.30 4.02 3.99 3.69 3.88 3.97 3.92 3.99 6.18 5.12 4.97 4.98 4.99 1.55 1.27 0.97 0.79 0.77 0.77 0.78 0.76 0.70 0.67 0.67 0.68 0.70 0.74 1.94 0.87 0.74 0.74 0.75 0.75 0.76 0.77 0.78 0.79 0.79 0.80 0.80 0.81 0.84 0.84 0.86 0.87 0.87 0.89 0.92 0.90 0.89 0.89 0 0.234339 2.871229 -2.463482 
ODOM 0.234339 2.871229 -2.463482 
ROBOTLASER1 0 -1.570796 3.141593 0.017453 81.900000 0.010000 0 181 3.70 3.83 3.92 4.04 4.07 4.07 4.03 4.14 4.86 5.04 5.25 5.44 5.68 5.65 6.07 6.38 6.71 6.99 7.43 7.91 8.36 9.31 9.73 9.78 11.30 11.30 11.27 11.25 14.16 13.40 13.40 13.38 13.40 11.13 11.16 11.16 11.13 9.58 8.16 6.71 3.58 3.56 3.57 3.50 3.24 2.94 2.68 2.47 2.13 2.11 2.08 1.94 1.84 1.73 1.66 1.58 1.52 1.47 1.40 1.35 1.29 1.25 1.22 1.18 1.13 1.10 1.08 1.05 1.02 0.99 0.96 0.95 0.84 0.82 0.81 0.81 0.82 0.86 0.87 0.96 0.98 1.00 1.03 1.05 1.08 1.10 1.13 1.14 1.17 1.19 1.23 1.26 1.29 1.32 3.23 2.98 2.97 3.87 3.38 3.21 3.18 3.12 3.35 3.23 4.24 4.22 5.15 4.15 4.14 4.12 4.10 4.16 4.16 4.14 4.12 4.11 3.68 4.26 6.16 6.16 6.15 3.92 3.84 3.58 3.85 3.81 3.79 3.79 5.66 4.85 4.87 4.89 4.89 4.92 4.92 1.55 1.46 1.35 1.19 1.11 1.00 0.92 0.86 0.79 0.75 0.70 0.69 0.73 0.72 0.69 0.68 0.68 0.63 0.63 0.61 0.62 0.63 0.63 0.64 0.71 0.69 0.68 0.70 0.71 0.72 0.73 0.73 0.74 0.76 0.77 0.78 0.80 0.82 0.83 0.85 0.86 0.90 0.89 0.88 0.90 0.92 0 0.107908 2.750250 -2.242922 
ODOM 0.107908 2.750250 -2.242922 
ROBOTLASER1 0 -1.570796 3.141593 0.017453 81.900000 0.010000 0 181 6.02 6.29 6.60 6.94 7.24 7.67 8.14 9.31 9.26 9.73 9.93 11.25 11.25 11.22 11.20 14.12 13.33 13.31 13.31 13.31 11.06 11.08 11.08 9.52 9.45 3.67 3.46 3.47 3.42 3.27 2.87 2.54 2.10 2.00 1.98 1.88 1.70 1.60 1.51 1.43 1.35 1.28 1.22 1.17 1.12 1.07 1.04 0.99 0.97 0.92 0.90 0.86 0.85 0.81 0.70 0.67 0.66 0.66 0.66 0.67 0.70 0.70 0.72 0.80 0.82 0.84 0.85 0.87 0.88 0.90 0.91 0.94 0.95 0.98 1.00 1.01 1.04 1.06 1.10 1.12 1.15 1.19 3.05 2.79 2.80 3.72 3.17 3.03 3.01 2.97 3.15 3.02 4.08 4.05 4.97 4.00 3.98 3.96 3.94 3.95 4.00 3.98 3.97 3.95 3.93 3.56 6.01 6.00 6.00 5.94 3.70 3.65 3.43 3.70 3.65 3.62 3.62 4.93 4.73 4.74 4.76 4.75 4.79 4.77 4.42 2.91 2.83 1.44 1.35 1.32 1.19 1.10 1.07 1.02 0.96 0.91 0.85 0.81 0.79 0.75 0.73 0.70 0.67 0.65 0.63 0.62 0.60 0.62 0.65 0.62 0.60 0.62 0.61 0.59 0.56 0.55 0.54 0.53 0.55 0.56 0.58 0.61 0.65 0.64 0.67 0.67 0.69 0.72 0.73 0.75 0.77 0.79 0.82 0.85 0.88 0.88 0.87 0.89 0.95 0.96 0.98 0 0.018736 2.616494 -2.053009 
ODOM 0.018736 2.616494 -2.053009 
ROBOTLASER1 0 -1.570796 3.141593 0.017453 81.900000 0.010000 0 181 11.19 11.14 14.07 13.29 13.28 13.26 13.26 11.03 11.03 11.02 3.40 3.40 3.41 3.33 2.77 1.91 1.91 1.87 1.50 1.33 1.22 1.14 1.08 0.96 0.86 0.82 0.76 0.59 0.55 0.52 0.51 0.51 0.52 0.52 0.54 0.55 0.55 0.55 0.57 0.63 0.64 0.63 0.65 0.66 0.66 0.67 0.69 0.69 0.70 0.71 0.72 0.73 0.75 0.77 0.77 0.78 0.79 0.81 0.83 0.84 0.86 0.88 0.89 0.90 0.93 0.96 1.52 2.98 2.94 3.14 2.60 2.63 3.51 2.91 2.83 2.81 2.88 3.31 2.88 3.88 3.87 3.85 4.78 3.76 3.75 3.73 3.71 3.72 3.79 3.76 3.75 3.74 3.73 3.30 5.79 5.78 5.80 5.79 3.52 3.49 3.46 3.28 3.51 3.45 3.44 3.49 4.62 4.56 4.58 4.60 4.57 4.61 4.58 4.24 3.98 2.88 2.67 2.62 2.68 2.95 1.27 1.21 1.16 1.12 1.05 1.00 0.96 0.92 0.90 0.87 0.84 0.81 0.79 0.77 0.74 0.70 0.70 0.68 0.66 0.64 0.62 0.62 0.60 0.59 0.58 0.57 0.55 0.55 0.54 0.53 0.52 0.51 0.50 0.49 0.49 0.52 0.52 0.50 0.51 0.54 0.51 0.53 0.51 0.50 0.49 0.49 0.49 0.47 0.47 0.49 0.52 0.63 0.66 0.70 0.76 0.79 0.87 0.87 0.87 0.94 0.95 0 -0.064568 2.416069 -1.832457 
ODOM -0.064568 2.416069 -1.832457 
ROBOTLASER1 0 -1.570796 3.141593 0.017453 81.900000 0.010000 0 181 0.48 0.48 0.48 0.53 0.54 0.54 0.54 0.53 0.53 0.53 0.54 0.55 0.54 0.54 0.57 0.57 0.58 0.57 0.58 0.58 0.59 0.59 0.60 0.60 0.61 0.61 0.61 0.62 0.63 0.63 0.64 0.64 0.65 0.66 0.67 0.68 0.69 0.70 0.71 0.70 0.72 0.73 0.74 0.76 0.77 0.78 1.30 1.35 1.40 1.40 1.38 4.04 4.06 2.78 2.70 2.49 2.37 2.53 3.25 2.75 2.63 2.61 2.61 4.46 2.80 2.57 3.67 3.64 3.61 4.55 3.55 3.53 3.52 3.50 3.48 3.55 3.53 3.52 3.53 3.51 3.50 3.07 5.57 5.54 5.57 5.56 3.32 3.27 3.26 2.99 3.21 3.24 3.22 3.20 3.20 4.32 4.35 4.37 4.39 4.36 4.39 4.32 4.01 3.74 3.36 2.51 2.44 2.40 2.47 2.73 2.62 2.37 2.37 1.21 1.02 0.99 0.95 0.94 0.90 0.87 0.84 0.82 0.79 0.77 0.75 0.73 0.71 0.71 0.70 0.67 0.66 0.64 0.63 0.62 0.61 0.60 0.59 0.58 0.56 0.55 0.55 0.54 0.52 0.52 0.52 0.52 0.51 0.50 0.50 0.49 0.48 0.48 0.46 0.47 0.46 0.45 0.46 0.45 0.46 0.45 0.45 0.45 0.44 0.44 0.44 0.43 0.42 0.43 0.43 0.41 0.44 0.45 0.48 0.47 0.45 0.45 0.45 0.46 0.47 0.45 0.45 0 -0.105787 2.175688 -1.637272 
ODOM -0.105787 2.175688 -1.637272 
ROBOTLASER1 0 -1.570796 3.141593 0.017453 81.900000 0.010000 0 181 0.95 0.92 0.94 0.93 1.00 0.99 0.92 0.95 0.95 0.96 1.07 1.11 1.11 3.34 3.33 3.28 3.15 3.16 3.19 3.20 3.22 3.23 3.25 3.28 3.30 3.32 3.34 3.37 3.41 3.43 3.47 3.50 3.53 3.57 3.59 3.56 3.85 3.62 4.12 4.21 1.64 1.72 2.04 2.16 2.70 2.86 2.15 1.87 1.82 1.80 1.79 1.83 2.48 2.10 2.34 2.70 2.77 3.32 3.26 2.83 2.83 2.80 2.79 2.75 2.73 2.68 3.68 2.65 2.62 2.60 2.59 2.57 2.55 2.54 2.59 2.57 2.56 2.55 2.54 2.52 2.51 2.07 2.17 2.62 4.52 4.50 4.53 4.55 4.53 4.52 2.29 2.24 2.24 2.15 2.03 2.26 2.24 2.20 2.19 2.18 2.18 3.29 3.27 3.29 3.30 3.31 3.34 3.34 3.36 3.36 3.15 3.00 2.86 2.73 2.58 2.36 2.37 2.29 2.21 1.70 1.51 1.51 1.48 1.46 1.51 1.57 1.72 1.69 1.65 1.60 1.48 1.46 1.47 1.54 2.92 2.87 2.81 2.78 2.83 2.88 2.93 2.79 2.85 2.92 2.97 3.21 3.28 4.60 6.03 5.96 5.87 5.50 5.71 5.28 5.44 5.61 5.55 5.52 5.47 5.42 5.38 5.35 5.31 5.27 5.23 5.21 4.88 4.86 4.84 4.81 4.79 4.78 5.01 1.07 0.91 0.90 0.90 0.91 0.97 1.12 1.11 0 -0.215499 1.178490 -1.787103 
ODOM -0.215499 1.178490 -1.787103 
ROBOTLASER1 0 -1.570796 3.141593 0.017453 81.900000 0.010000 0 181 0.93 0.94 0.96 1.02 0.93 0.94 0.93 0.92 0.95 1.03 1.05 1.05 3.30 3.34 3.35 3.32 2.63 2.62 2.64 2.74 3.34 3.29 3.24 3.10 3.10 3.13 3.14 3.14 3.17 3.18 3.20 3.22 3.23 3.26 3.28 3.30 3.32 3.35 3.38 3.41 3.43 3.47 3.49 3.44 3.82 1.53 1.53 1.91 1.93 1.96 4.42 4.45 1.71 1.70 1.67 1.65 1.64 1.69 2.23 2.32 2.07 2.13 2.49 2.54 2.57 3.17 2.92 3.21 2.64 2.64 2.61 2.59 2.57 2.52 2.49 3.51 2.45 2.44 2.41 2.40 2.37 2.36 2.33 2.42 2.38 2.36 2.35 2.34 2.33 2.31 2.26 1.88 1.99 2.37 3.91 4.34 4.33 4.32 4.33 4.34 2.10 2.14 2.04 2.04 1.96 1.82 2.01 2.04 2.01 1.99 1.97 1.98 2.07 3.06 3.09 3.10 3.12 3.14 3.14 3.14 3.19 3.16 2.97 2.84 2.71 2.58 2.47 2.26 2.19 2.20 2.12 2.05 1.99 1.92 1.38 1.35 1.32 1.30 1.30 1.30 1.45 1.51 1.55 1.52 1.48 1.43 1.33 1.30 1.32 1.36 1.38 2.66 2.70 2.75 2.81 2.67 2.72 2.78 2.87 3.13 3.20 5.89 5.81 5.74 5.65 5.62 5.29 5.55 5.51 5.47 5.42 5.38 5.34 5.31 5.28 5.24 5.20 5.18 5.16 4.83 4.82 0 -0.248040 1.033165 -2.031477 
ODOM -0.248040 1.033165 -2.031477 
ROBOTLASER1 0 -1.570796 3.141593 0.017453 81.900000 0.010000 0 181 0.99 1.01 1.06 1.10 1.17 1.23 1.30 1.36 1.41 1.47 1.06 0.95 0.95 0.93 0.99 1.00 0.98 0.96 0.93 0.93 0.94 0.97 1.05 1.05 3.33 3.34 3.35 3.33 2.64 2.62 2.63 2.73 3.37 3.32 3.26 3.12 3.12 3.14 3.15 3.16 3.17 3.19 3.21 3.23 3.25 3.27 3.29 3.32 3.34 3.35 3.38 3.41 3.43 3.47 3.50 3.46 3.88 1.63 1.53 1.92 1.92 1.96 1.98 4.49 1.73 1.82 1.67 1.65 1.64 1.69 2.19 2.26 2.01 1.97 2.49 2.54 2.57 3.19 2.81 3.20 2.66 2.66 2.62 2.60 2.57 2.53 2.51 3.51 2.46 2.44 2.42 2.40 2.38 2.36 2.34 2.44 2.38 2.37 2.36 2.35 2.33 2.32 2.30 1.88 1.98 2.33 2.46 4.37 4.34 4.32 4.35 4.34 2.13 2.14 2.04 2.04 1.99 1.82 2.01 2.05 2.02 2.00 1.99 1.98 2.02 3.08 3.08 3.10 3.12 3.13 3.15 3.15 3.19 3.19 3.00 2.85 2.73 2.60 2.48 2.31 2.20 2.20 2.14 2.06 2.00 1.94 1.38 1.34 1.32 1.31 1.29 1.29 1.43 1.50 1.54 1.52 1.48 1.45 1.33 1.31 1.31 1.36 1.53 2.65 2.70 2.75 2.80 2.67 2.71 2.78 2.84 3.10 3.18 5.90 5.83 5.77 5.55 5.61 5.18 5.47 5.55 0 -0.248182 1.032974 -2.227101 
ODOM -0.248182 1.032974 -2.227101 
