ROBOTLASER1 0 -1.570796 3.141593 0.017453 81.900000 0.010000 0 181 0.80 0.79 0.79 0.78 0.78 0.78 0.77 0.77 0.77 0.77 0.76 0.76 0.77 0.77 0.77 0.77 0.77 0.76 0.76 0.76 0.77 0.77 0.76 0.76 0.77 0.77 0.78 0.77 0.77 0.77 0.78 0.78 0.79 0.79 0.80 0.80 0.80 0.81 0.81 0.82 0.82 0.83 0.84 0.85 0.85 0.97 1.78 1.80 1.81 1.83 1.85 1.87 1.93 1.96 1.98 2.01 2.03 2.07 2.10 2.12 2.16 2.20 2.23 2.27 2.32 2.36 2.41 2.46 2.51 2.57 2.63 2.69 2.75 2.83 2.91 2.99 3.08 3.15 3.20 3.31 3.42 3.56 3.69 3.83 5.41 5.37 5.34 4.84 4.80 5.07 5.37 5.68 6.05 6.52 6.85 7.08 0.00 11.22 11.19 10.37 3.21 3.14 3.08 3.05 3.01 2.95 2.89 2.85 2.80 2.75 2.72 2.68 2.63 2.61 2.57 2.53 2.46 2.43 2.40 2.37 2.22 2.06 1.93 1.82 1.72 1.63 1.55 1.49 1.48 1.43 1.37 1.31 1.27 1.22 1.18 1.14 1.11 1.07 1.04 1.01 0.98 0.96 0.93 0.91 0.89 0.87 0.85 0.83 0.81 0.81 0.76 0.72 0.73 0.72 0.70 0.69 0.68 0.67 0.66 0.65 0.64 0.63 0.63 0.61 0.61 0.60 0.60 0.60 0.59 0.58 0.58 0.58 0.57 0.56 0.56 0.55 0.55 0.54 0.54 0.54 0.54 0 0.000000 0.031000 1.570796 
ODOM 0.000000 0.031000 1.570796 
ROBOTLASER1 0 -1.570796 3.141593 0.017453 81.900000 0.010000 0 181 1.31 1.30 1.30 1.29 1.29 1.28 1.29 1.28 1.27 1.27 1.27 1.27 1.26 1.27 1.26 1.26 1.27 1.26 1.26 1.28 1.28 1.29 1.29 1.30 1.30 1.30 1.31 1.31 1.31 1.31 1.32 1.33 1.34 1.34 1.34 1.35 1.36 1.37 1.38 1.39 1.40 1.40 1.42 1.43 1.44 1.46 1.47 1.49 1.50 1.51 1.53 1.55 1.56 1.58 1.61 1.63 1.66 1.68 1.71 1.72 1.76 1.78 1.82 1.84 1.88 1.92 1.95 1.99 2.03 2.07 2.12 2.14 2.18 2.23 2.28 2.36 2.42 2.49 2.57 2.65 2.74 3.00 4.41 4.36 4.33 4.31 4.27 3.76 3.83 4.05 4.28 4.54 4.84 5.20 5.60 5.69 6.05 10.39 10.38 10.33 0.00 15.85 13.20 5.55 5.50 2.19 2.15 2.12 2.08 2.05 2.04 2.01 2.00 1.97 1.94 1.92 1.89 1.88 1.84 1.83 1.82 1.80 1.78 1.76 1.74 1.73 1.71 1.71 1.69 1.68 1.67 1.67 1.64 1.61 1.59 1.58 1.57 1.57 1.55 1.55 1.50 1.47 1.43 1.40 1.37 1.34 1.32 1.29 1.26 1.23 1.22 1.19 1.17 1.16 1.14 1.12 1.11 1.09 1.07 1.05 1.05 1.03 1.02 1.01 1.00 0.98 0.97 0.96 0.96 0.95 0.94 0.92 0.92 0.93 0.95 0.93 0.93 0.93 0.92 0.91 0.90 0 0.014000 1.078000 1.537111 
ODOM 0.014000 1.078000 1.537111 
ROBOTLASER1 0 -1.570796 3.141593 0.017453 81.900000 0.010000 0 181 1.01 1.01 1.01 1.02 1.01 1.00 1.00 1.00 0.99 1.00 0.99 0.99 0.99 0.99 0.99 0.99 0.99 0.99 0.99 1.00 0.99 1.00 1.00 1.00 1.00 1.01 1.01 1.01 1.01 1.02 1.02 1.03 1.03 1.04 1.05 1.05 1.06 1.08 1.08 1.08 1.09 1.10 1.11 1.12 1.14 1.15 1.16 1.16 1.17 1.16 1.18 1.19 1.20 1.22 1.24 1.26 1.27 1.29 1.32 1.33 1.36 1.38 1.41 1.44 1.46 1.49 1.53 1.56 1.60 1.63 1.68 1.72 1.75 3.99 3.91 3.39 3.35 3.30 3.26 3.24 3.22 3.20 2.68 2.63 2.66 2.80 2.94 3.12 3.30 3.51 3.73 3.98 4.32 4.51 4.57 5.02 9.28 9.26 8.90 0.00 14.58 0.00 11.69 11.68 4.46 4.43 4.43 4.41 3.32 2.56 2.13 1.82 1.58 1.39 1.24 1.15 1.14 1.13 1.11 1.10 1.09 1.07 1.07 1.06 1.05 1.04 1.03 1.05 1.05 1.05 1.04 1.03 1.03 1.02 1.02 1.02 1.01 1.01 1.01 1.01 1.00 1.00 0.99 0.99 0.99 0.99 0.98 0.98 0.98 0.98 0.99 0.98 0.99 0.99 0.98 0.99 0.99 1.00 1.00 1.00 1.00 1.01 1.01 1.02 1.02 1.02 1.03 1.04 1.04 1.05 1.06 1.07 1.08 1.08 1.07 1.07 1.06 1.07 1.08 1.09 1.10 0 0.036000 2.190000 1.536064 
ODOM 0.036000 2.190000 1.536064 
ROBOTLASER1 0 -1.570796 3.141593 0.017453 81.900000 0.010000 0 181 0.74 0.73 0.73 0.73 0.72 0.72 0.72 0.72 0.72 0.72 0.72 0.72 0.72 0.72 0.72 0.72 0.73 0.72 0.72 0.72 0.72 0.72 0.72 0.72 0.73 0.73 0.73 0.73 0.74 0.74 0.74 0.74 0.75 0.76 0.75 0.77 0.77 0.77 0.78 0.78 0.79 0.80 0.81 0.82 0.82 0.83 0.84 0.85 0.85 0.85 4.27 3.73 3.69 3.73 3.78 3.94 3.55 3.25 3.21 3.17 3.12 3.09 3.14 3.21 3.31 3.59 3.55 2.96 2.45 2.41 2.37 2.33 2.30 2.29 2.27 2.24 1.90 1.68 1.66 1.66 1.71 1.77 1.85 1.94 2.02 2.13 2.23 2.36 2.50 2.66 2.83 3.06 3.31 3.51 3.65 3.66 4.18 8.27 7.11 7.90 0.00 11.09 10.57 10.71 10.70 10.06 10.70 3.49 3.46 3.47 3.47 3.48 3.22 2.86 2.58 2.36 2.17 2.01 1.87 1.74 1.64 1.55 1.47 1.39 1.33 1.27 1.21 1.16 1.12 1.07 1.04 1.00 0.97 0.94 0.91 0.88 0.85 0.83 0.81 0.80 0.78 0.76 0.74 0.73 0.72 0.70 0.69 0.67 0.67 0.64 0.64 0.63 0.62 0.61 0.60 0.58 0.58 0.57 0.57 0.57 0.56 0.55 0.55 0.54 0.53 0.53 0.53 0.52 0.52 0.51 0.51 0.50 0.50 0.50 0.50 0.49 0.49 0.48 0.48 0.48 0.48 0 0.056000 3.193000 1.538508 
ODOM 0.056000 3.193000 1.538508 
ROBOTLASER1 0 -1.570796 3.141593 0.017453 81.900000 0.010000 0 181 3.00 3.77 3.81 2.30 3.81 3.80 3.07 3.07 3.07 3.07 3.08 3.08 3.09 3.10 3.12 3.13 3.24 3.90 3.91 3.93 3.95 3.97 3.99 4.01 4.03 3.88 3.68 2.99 3.03 2.92 2.89 2.86 2.51 2.44 2.39 2.33 2.29 2.28 1.73 0.76 0.72 0.68 0.69 0.68 0.69 0.69 0.70 0.71 0.73 0.73 0.75 0.77 0.78 0.79 0.81 0.83 0.83 0.86 0.88 0.90 0.93 0.94 0.97 1.00 1.02 1.05 1.08 1.12 1.15 1.20 1.24 1.28 1.34 1.40 1.46 1.53 1.60 1.69 1.78 1.88 2.02 2.17 2.33 2.44 2.45 2.49 2.61 3.00 7.19 6.29 6.75 6.14 10.04 10.03 9.63 9.64 9.58 9.00 9.63 9.67 9.17 9.18 5.17 4.88 2.45 2.43 2.44 2.45 2.46 2.47 2.38 2.24 2.12 2.00 1.90 1.82 1.74 1.66 1.60 1.54 1.48 1.43 1.38 1.33 1.30 1.26 1.21 1.18 1.16 1.12 1.10 1.07 1.05 1.03 1.01 0.99 0.97 0.94 0.94 0.92 0.90 0.89 0.87 0.85 0.84 0.83 0.82 0.81 0.79 0.78 0.77 0.77 0.76 0.75 0.75 0.74 0.74 0.73 0.72 0.71 0.70 0.71 0.70 0.69 0.69 0.68 0.68 0.67 0.67 0.67 0.66 0.66 0.66 0.66 0.65 0.65 0.65 0.65 0.64 0.64 0.64 0 0.005000 4.269000 1.693493 
ODOM 0.005000 4.269000 1.693493 
ROBOTLASER1 0 -1.570796 3.141593 0.017453 81.900000 0.010000 0 181 0.47 0.47 0.47 0.47 0.47 0.48 0.48 0.48 0.48 0.48 0.49 0.49 0.50 0.50 0.50 0.50 0.50 0.50 0.51 0.51 0.51 0.51 0.52 0.52 0.52 0.52 0.53 0.53 0.54 0.54 0.55 0.56 0.56 0.57 0.57 0.57 0.58 0.59 0.60 0.60 0.62 0.63 0.63 0.64 0.65 0.64 0.66 0.66 0.68 0.72 0.73 0.72 0.73 0.75 0.77 0.82 0.81 0.82 0.85 0.89 0.91 0.96 0.99 1.02 1.06 1.10 1.15 1.19 1.24 1.30 1.36 1.42 1.46 1.44 1.45 1.78 1.50 1.53 1.66 1.83 2.02 2.27 6.19 6.19 5.03 5.73 5.15 0.00 9.03 8.49 8.63 8.63 8.02 8.00 8.41 8.66 8.16 8.18 8.21 6.68 4.10 3.90 3.93 3.92 3.92 4.00 3.75 1.48 1.48 1.46 1.48 1.50 1.50 1.50 1.52 1.53 1.54 1.50 1.46 1.41 1.37 1.32 1.29 1.26 1.23 1.20 1.18 1.14 1.13 1.10 1.08 1.06 1.04 1.01 1.00 0.98 0.96 0.95 0.94 0.92 0.91 0.89 0.88 0.87 0.85 0.84 0.83 0.83 0.82 0.82 0.80 0.79 0.79 0.78 0.77 0.77 0.76 0.76 0.75 0.74 0.74 0.73 0.73 0.73 0.73 0.72 0.72 0.72 0.71 0.71 0.71 0.71 0.71 0.70 0.70 0.70 0.70 0.70 0.69 0.69 0.69 0 -0.129000 5.264000 1.745329 
ODOM -0.129000 5.264000 1.745329 
ROBOTLASER1 0 -1.570796 3.141593 0.017453 81.900000 0.010000 0 181 0.47 0.47 0.47 0.47 0.47 0.47 0.48 0.48 0.48 0.48 0.49 0.49 0.50 0.50 0.50 0.50 0.50 0.51 0.51 0.51 0.52 0.52 0.52 0.53 0.53 0.54 0.53 0.54 0.55 0.55 0.56 0.56 0.57 0.57 0.58 0.59 0.59 0.57 0.56 0.55 0.56 0.55 0.56 0.56 0.58 0.60 0.69 0.59 0.57 0.57 0.56 0.58 0.59 0.60 0.62 0.63 0.66 0.68 0.70 0.72 0.74 0.76 0.79 0.83 0.85 0.90 0.94 0.99 1.03 1.09 1.14 1.21 1.30 3.94 3.94 3.85 3.96 4.00 5.21 5.19 5.19 4.04 4.33 4.23 4.17 8.03 8.03 7.48 7.64 7.65 7.63 7.61 7.65 7.66 7.66 7.16 7.17 7.19 7.17 5.51 5.30 3.22 3.09 2.91 2.91 2.92 2.92 2.95 3.03 2.91 2.79 2.74 2.74 2.77 2.78 2.80 2.83 2.87 2.90 5.63 5.59 5.57 7.21 7.30 7.24 7.45 1.28 1.26 6.80 6.78 6.64 3.75 3.73 0.64 0.62 0.59 0.59 0.58 0.58 0.59 0.58 0.60 0.61 0.62 0.64 0.66 0.67 0.70 0.72 0.74 0.76 0.76 0.76 0.76 0.76 0.75 0.75 0.74 0.73 0.73 0.74 0.73 0.73 0.72 0.72 0.72 0.71 0.70 0.70 0.70 0.70 0.70 0.70 0.69 0.69 0.69 0.69 0.69 0.69 0.69 0.68 0 -0.304000 6.252000 1.763830 
ODOM -0.304000 6.252000 1.763830 
ROBOTLASER1 0 -1.570796 3.141593 0.017453 81.900000 0.010000 0 181 0.43 0.43 0.44 0.43 0.43 0.44 0.45 0.46 0.46 0.46 0.46 0.47 0.47 0.48 0.48 0.48 0.49 0.50 0.51 0.51 0.52 0.52 0.53 0.53 0.54 0.56 0.56 0.56 0.58 0.59 0.60 0.61 0.61 0.63 0.64 4.75 4.85 4.97 2.71 5.20 5.34 5.48 5.39 5.25 5.24 4.43 4.21 3.70 4.29 6.08 6.06 6.04 4.32 6.03 3.27 3.24 3.40 3.16 3.25 3.26 4.49 3.57 3.42 3.39 3.30 3.38 3.41 3.48 3.44 3.58 7.29 7.28 7.27 7.33 7.32 7.19 6.42 6.25 6.61 6.79 7.46 6.52 6.42 6.44 6.46 6.42 4.78 4.55 4.49 4.15 3.92 2.34 2.20 2.11 2.15 2.16 2.18 2.19 2.20 2.31 2.28 2.18 2.11 2.06 2.05 2.05 2.07 2.10 2.12 2.14 2.17 2.21 2.24 6.75 6.78 6.90 6.50 6.34 6.20 6.19 6.14 5.98 5.59 5.08 3.65 3.57 3.15 3.50 3.53 3.57 3.62 3.04 2.97 2.93 2.91 2.87 2.84 2.82 2.79 2.76 3.24 3.93 2.82 2.79 2.75 0.78 0.77 0.77 2.68 2.69 2.75 2.88 4.26 1.24 1.31 4.20 1.83 4.14 3.89 3.89 3.88 3.87 3.37 3.38 3.38 3.38 3.38 3.38 3.39 3.39 2.99 2.55 1.78 1.96 1.69 1.23 1.24 1.37 1.27 1.18 1.14 0 -0.470000 6.986000 1.998751 
ODOM -0.470000 6.986000 1.998751 
ROBOTLASER1 0 -1.570796 3.141593 0.017453 81.900000 0.010000 0 181 0.57 0.58 0.59 0.57 3.08 3.13 2.68 2.22 2.17 2.20 2.29 2.24 3.41 3.45 4.13 4.21 2.71 4.35 4.42 4.51 4.59 4.68 2.60 4.88 4.98 5.10 5.22 5.35 5.44 5.14 5.12 4.33 4.30 3.56 4.02 5.96 5.93 5.92 4.17 5.88 3.13 3.15 3.01 3.18 3.12 3.33 4.33 3.26 3.24 3.22 3.12 3.22 3.23 3.27 3.33 3.38 7.54 7.11 7.07 7.09 6.58 7.07 7.08 6.19 6.15 6.05 6.18 7.28 6.94 6.21 6.23 6.24 6.25 5.85 4.43 4.34 4.10 3.80 2.22 2.06 1.92 1.91 1.94 1.96 1.96 1.98 1.99 1.97 2.08 2.00 1.92 1.87 1.83 1.82 1.84 1.85 1.88 1.89 1.92 1.95 1.97 2.01 2.03 6.51 6.93 6.27 6.08 6.00 5.99 5.95 5.82 5.40 4.92 3.72 3.43 3.35 2.96 3.25 3.34 3.38 3.43 3.51 2.81 2.79 2.76 2.73 2.70 2.68 2.66 2.63 2.61 2.59 3.86 2.72 2.65 2.62 2.59 2.58 2.55 2.54 2.54 2.55 2.61 2.75 4.12 4.10 4.09 3.69 0.65 0.64 0.70 1.12 3.78 3.29 3.29 3.29 3.29 3.29 3.30 3.31 3.31 3.33 3.02 2.74 2.51 2.32 2.14 1.73 1.82 1.78 1.68 1.59 1.28 1.27 1.21 1.30 1.27 1.20 1.16 1.14 1.10 0 -0.587000 7.166000 2.200686 
ODOM -0.587000 7.166000 2.200686 
ROBOTLASER1 0 -1.570796 3.141593 0.017453 81.900000 0.010000 0 181 4.21 2.54 2.48 4.39 4.47 4.54 4.62 4.71 4.79 4.88 4.97 5.08 5.18 5.05 4.97 4.04 3.37 4.15 5.65 5.80 5.76 5.72 3.95 3.01 2.80 2.88 4.19 4.16 4.15 4.14 2.98 2.96 2.96 2.85 2.82 2.92 2.94 2.96 3.13 3.26 3.59 6.26 7.18 7.57 6.77 6.59 6.73 6.17 6.76 6.72 6.58 5.88 5.67 5.77 6.06 6.71 6.51 5.82 5.83 5.84 5.26 4.17 0.00 1.74 1.51 1.39 1.39 1.40 1.40 1.40 1.41 1.42 1.43 1.43 1.44 1.44 1.46 1.61 1.53 1.48 1.45 1.41 1.40 1.40 1.42 1.42 1.43 1.45 1.47 1.48 1.51 1.53 1.55 1.59 6.50 5.86 5.76 5.59 5.60 5.46 5.15 5.32 5.00 4.56 4.47 4.41 3.08 3.02 2.96 2.58 2.59 2.96 3.01 3.06 3.14 4.51 2.46 2.44 2.42 2.40 2.38 2.36 2.34 2.34 2.32 2.30 2.29 2.28 4.01 2.42 2.36 2.34 2.31 2.31 2.29 2.28 2.27 2.27 2.27 2.34 2.50 3.85 3.85 4.19 3.56 3.57 3.57 3.58 3.59 3.21 3.10 3.11 3.12 3.13 1.64 1.56 3.16 3.18 3.12 2.95 1.04 1.04 0.96 0.97 2.32 2.22 2.14 2.06 1.99 1.92 1.86 1.67 1.75 1.71 1.66 1.62 1.57 1.53 0.84 0.54 0.53 0 -0.852000 7.505000 2.378360 
ODOM -0.852000 7.505000 2.378360 
ROBOTLASER1 0 -1.570796 3.141593 0.017453 81.900000 0.010000 0 181 5.06 4.94 3.34 4.95 5.61 5.56 5.70 5.73 5.69 3.85 2.85 2.87 4.20 4.17 4.15 4.11 2.94 2.92 3.09 2.75 2.82 3.03 2.99 2.99 3.00 3.14 2.97 3.84 4.14 6.88 7.10 7.47 6.67 6.37 6.61 6.05 6.81 6.59 6.51 6.05 5.55 5.95 6.39 6.59 6.40 5.68 5.69 5.69 1.67 1.34 1.24 1.24 1.25 1.25 1.25 1.26 1.26 1.27 1.27 1.27 1.28 1.28 1.30 1.52 1.41 1.34 1.31 1.26 1.22 1.23 1.22 1.24 1.24 1.26 1.27 1.28 1.30 1.32 1.34 1.35 1.38 1.39 1.43 5.97 6.23 5.54 5.43 5.41 5.40 5.37 5.26 4.81 5.04 4.30 4.25 3.17 2.88 2.80 2.76 2.40 2.39 2.78 2.82 2.87 2.93 4.02 4.32 2.28 2.26 2.25 2.23 2.22 2.20 2.18 2.17 2.15 2.14 2.14 2.13 2.14 3.83 2.23 2.20 2.18 2.15 2.15 2.13 2.13 2.12 2.12 2.13 2.15 2.36 3.72 3.32 3.71 3.45 3.45 3.45 3.47 3.40 3.09 2.99 3.00 3.01 3.02 3.04 3.06 3.08 3.08 1.40 2.94 2.81 2.69 2.58 2.48 2.38 2.30 2.22 0.97 0.97 1.18 0.90 0.90 1.85 1.81 1.62 1.68 1.68 1.65 1.62 1.58 1.55 1.52 1.47 1.45 1.44 1.42 1.38 1.26 1.34 0 -0.995000 7.611000 2.554115 
ODOM -0.995000 7.611000 2.554115 
ROBOTLASER1 0 -1.570796 3.141593 0.017453 81.900000 0.010000 0 181 0.45 0.45 0.44 0.43 0.43 0.43 0.43 0.43 0.43 0.43 0.42 0.43 0.43 0.42 0.42 0.42 0.42 0.42 0.42 0.41 0.41 0.40 0.41 0.41 0.41 0.41 0.41 0.40 0.40 0.41 0.41 0.41 0.42 0.42 0.41 0.45 0.71 0.75 0.75 0.75 0.86 0.87 0.88 0.89 5.86 3.81 3.53 3.42 3.45 3.41 3.37 3.39 3.43 3.46 3.53 5.24 5.23 5.82 5.78 5.78 3.27 3.10 3.18 3.14 3.12 3.13 3.16 3.22 3.32 4.87 4.80 4.73 4.54 4.46 4.30 4.29 4.26 4.18 4.07 4.08 3.69 3.86 3.19 3.15 3.11 3.07 3.03 1.88 1.84 1.82 1.87 0.00 1.28 1.25 1.26 1.26 1.72 1.75 1.79 3.21 3.21 3.19 3.19 3.16 3.13 3.10 3.10 3.08 1.19 1.19 1.19 1.18 1.18 1.18 1.17 1.17 1.17 1.16 1.16 1.16 1.15 1.16 1.16 1.16 1.16 1.16 1.16 1.16 1.16 1.16 1.16 1.17 1.17 1.18 2.86 1.52 0.00 0.00 1.34 1.32 1.35 1.32 1.33 1.34 1.34 1.36 1.38 1.43 2.67 2.59 2.51 2.43 2.37 2.36 2.39 2.42 2.44 2.47 2.51 2.54 2.58 2.62 2.57 2.53 2.48 2.44 2.39 2.34 2.31 2.27 2.23 2.20 2.17 2.15 2.12 2.09 2.07 2.04 2.01 1.98 1.97 0 -1.983000 8.166000 2.698628 
ODOM -1.983000 8.166000 2.698628 
ROBOTLASER1 0 -1.570796 3.141593 0.017453 81.900000 0.010000 0 181 0.56 0.58 0.60 0.61 0.60 0.60 0.58 0.58 0.57 0.57 0.57 0.58 0.58 0.60 0.61 0.64 0.67 0.67 0.64 0.64 0.63 0.63 0.64 0.67 0.70 0.74 0.77 0.81 0.86 0.91 0.97 1.03 1.11 1.19 1.30 1.43 1.58 1.77 2.06 2.09 2.09 2.07 2.07 2.06 2.07 2.09 2.09 2.10 5.46 5.46 5.47 5.49 5.49 3.14 3.08 3.06 3.09 2.99 3.00 3.02 3.07 3.04 3.14 5.78 5.46 5.82 5.61 5.40 2.87 2.67 2.75 2.72 2.69 2.67 2.68 2.70 2.74 2.81 2.89 4.25 4.41 4.34 4.31 4.04 3.96 3.83 3.80 3.78 3.74 3.34 3.68 3.53 3.18 3.23 2.69 2.65 2.63 2.59 2.54 1.84 1.39 1.47 1.41 1.39 1.40 0.00 0.00 0.00 0.77 0.76 0.77 0.75 0.76 0.80 1.30 2.72 2.70 2.71 2.72 2.68 2.66 2.64 2.63 2.63 2.62 2.62 2.60 2.25 2.24 2.57 2.58 2.58 2.58 2.57 2.58 0.75 0.74 0.74 0.74 0.75 0.75 0.75 0.75 0.75 0.76 0.75 0.76 0.76 0.76 0.77 0.77 0.77 0.77 0.77 0.78 0.77 0.78 0.79 0.79 0.80 0.80 0.81 0.82 0.82 0.83 0.84 0.85 0.86 0.86 0.87 0.88 1.25 1.29 1.20 1.14 0.00 1.19 2.17 2.23 2.26 2.30 0 -2.428000 8.396000 2.459169 
ODOM -2.428000 8.396000 2.459169 
ROBOTLASER1 0 -1.570796 3.141593 0.017453 81.900000 0.010000 0 181 0.59 0.60 0.61 0.61 0.62 0.64 0.64 0.65 0.66 0.68 0.69 0.70 0.72 0.73 0.74 0.75 0.77 0.78 0.80 0.82 0.84 0.86 0.88 0.90 0.93 0.95 0.98 1.00 1.04 1.07 1.11 1.15 1.19 1.24 1.29 1.35 1.41 1.48 1.55 1.64 1.74 1.84 1.85 1.85 1.81 1.83 1.84 1.87 1.81 1.81 1.80 1.80 5.16 5.16 5.16 5.14 5.18 5.15 5.16 5.16 5.16 2.73 2.72 2.72 2.68 2.66 2.66 2.67 2.72 2.69 2.77 3.44 5.36 5.44 5.10 5.44 5.30 2.49 2.31 2.38 2.35 2.32 2.29 2.29 2.29 2.30 2.34 2.39 2.46 2.51 3.86 4.05 4.22 4.41 4.29 3.55 3.50 3.42 3.41 3.39 3.36 3.33 3.23 3.51 3.22 2.81 3.07 2.36 2.30 2.27 2.24 2.21 2.19 2.16 2.15 2.13 1.87 1.65 1.14 1.12 1.13 1.14 1.13 1.35 1.09 1.02 1.01 1.03 1.06 1.42 2.41 2.41 2.11 1.59 2.40 2.41 2.38 2.36 2.34 0.47 0.46 0.45 0.45 0.45 0.45 0.45 0.45 0.46 0.47 2.33 2.33 2.34 2.34 2.35 2.36 2.35 2.23 2.12 1.93 1.75 1.60 1.47 1.37 1.27 1.18 1.12 1.06 1.00 0.95 0.90 0.87 0.84 0.80 0.77 0.75 0.72 0.77 0.62 0.58 0.58 0.59 0 -2.696000 8.671000 2.243446 
ODOM -2.696000 8.671000 2.243446 
ROBOTLASER1 0 -1.570796 3.141593 0.017453 81.900000 0.010000 0 181 0.57 0.59 0.59 0.59 0.60 0.61 0.61 0.61 0.63 0.63 0.63 0.63 0.65 0.66 0.67 0.68 0.69 0.70 0.70 0.71 0.72 0.73 0.74 0.75 0.76 0.77 0.79 0.80 0.82 0.84 0.86 0.88 0.89 0.92 0.94 0.96 0.98 1.01 1.04 1.07 1.11 1.14 1.18 1.22 1.26 1.32 1.37 1.42 1.48 1.55 1.63 1.72 1.80 1.90 2.02 1.76 2.14 2.24 2.11 3.13 3.50 3.94 4.47 5.09 5.08 5.07 5.07 5.05 5.06 5.05 5.05 5.05 5.06 2.63 2.62 2.65 2.64 2.55 2.55 2.58 2.61 2.60 2.59 2.68 5.25 3.37 3.41 3.73 3.60 3.46 2.21 2.17 2.27 2.23 2.21 2.19 2.18 2.19 2.21 2.24 2.28 2.34 2.42 3.76 3.93 4.12 4.32 4.22 3.60 3.49 3.34 3.32 3.32 3.30 3.21 2.78 3.79 3.06 2.72 2.70 2.94 2.31 2.20 2.17 2.15 2.13 2.11 2.08 2.07 2.05 2.02 1.72 1.99 2.05 1.07 1.03 1.04 1.07 2.43 1.02 1.29 2.38 0.00 0.96 0.94 0.99 1.01 2.33 2.31 1.55 2.33 2.32 2.30 2.29 2.29 2.29 2.28 2.28 2.29 2.29 2.29 2.07 1.94 1.94 0.44 0.42 0.42 0.41 0.40 0.41 0.41 0.40 0.41 0.42 0.45 1.77 1.64 1.53 1.44 1.36 1.29 0 -2.753000 8.761000 2.032610 
ODOM -2.753000 8.761000 2.032610 
ROBOTLASER1 0 -1.570796 3.141593 0.017453 81.900000 0.010000 0 181 0.75 0.76 0.76 0.77 0.77 0.78 0.79 0.79 0.80 0.80 0.81 0.81 0.82 0.82 0.82 0.83 0.84 0.85 0.85 0.86 0.87 0.88 0.89 0.90 0.92 0.92 0.94 0.96 0.97 0.98 1.00 1.01 1.03 1.04 1.06 1.08 1.11 1.13 1.15 1.13 1.11 1.10 1.07 1.06 1.05 1.03 1.02 1.01 1.02 1.01 1.00 0.99 0.99 0.98 0.99 1.03 1.08 1.12 1.18 1.24 1.34 2.53 2.69 2.87 3.08 3.29 3.53 3.83 4.17 4.31 4.11 4.29 4.28 4.29 4.26 4.25 4.27 1.82 1.83 1.83 1.82 1.83 1.73 1.73 1.75 1.73 1.71 1.70 1.71 1.75 1.79 1.75 1.84 2.55 2.55 2.53 2.52 3.70 3.62 3.45 4.20 4.11 1.61 1.55 1.41 1.39 1.45 1.45 1.44 1.44 1.45 1.45 1.45 1.46 1.49 1.57 1.65 1.70 1.71 1.69 1.70 3.00 3.48 3.41 2.84 2.72 2.78 2.67 2.62 2.62 2.62 2.61 2.62 2.53 2.61 2.54 2.75 2.44 2.35 2.38 2.30 2.08 2.10 2.27 2.29 2.24 2.21 2.21 1.88 1.66 1.64 1.64 1.63 1.64 1.63 1.64 1.63 1.62 1.63 1.63 1.63 1.63 1.63 1.63 1.61 2.06 2.08 2.08 1.31 2.07 2.07 2.10 2.08 2.09 2.09 2.07 2.09 2.10 2.09 1.60 2.13 0 -3.019000 9.542000 1.849002 
ODOM -3.019000 9.542000 1.849002 
ROBOTLASER1 0 -1.570796 3.141593 0.017453 81.900000 0.010000 0 181 0.63 0.63 0.63 0.64 0.66 0.66 1.04 1.06 1.07 1.09 1.10 1.12 1.14 1.15 1.17 1.17 1.19 1.21 1.23 1.25 1.27 1.29 1.32 1.34 1.37 1.39 1.43 1.45 1.48 1.51 1.54 1.59 1.63 1.67 1.71 1.76 1.82 1.87 1.93 2.00 2.07 2.15 2.23 2.31 2.41 2.51 2.62 2.74 2.88 3.03 3.20 3.40 3.26 3.19 0.94 0.94 0.94 0.92 0.91 0.91 0.92 0.92 0.83 0.82 0.81 0.80 0.78 0.78 0.77 0.79 0.78 0.78 0.78 0.77 0.77 0.76 0.77 0.77 0.77 0.81 0.86 0.87 0.87 0.85 0.94 1.57 1.59 1.60 1.60 1.62 2.35 2.40 2.56 3.22 3.16 3.20 3.23 3.26 2.36 2.08 2.11 3.22 3.14 3.07 2.43 2.46 2.50 2.54 0.77 0.75 0.74 0.75 0.73 0.72 0.70 0.70 0.57 0.57 0.58 0.57 0.56 0.56 0.56 0.59 0.65 0.71 0.77 0.74 0.74 0.80 0.82 0.83 0.96 1.04 1.05 1.20 1.32 2.02 2.05 2.07 1.96 3.96 2.24 2.00 1.95 2.04 1.96 1.92 1.89 1.93 1.93 1.90 1.92 1.91 1.69 1.69 1.91 1.90 1.90 1.86 1.90 1.90 1.90 1.89 1.91 1.63 1.63 1.68 1.70 1.59 1.49 1.44 1.45 1.45 1.46 1.48 1.49 1.49 1.51 1.52 1.52 0 -3.236000 10.432000 2.046049 
ODOM -3.236000 10.432000 2.046049 
ROBOTLASER1 0 -1.570796 3.141593 0.017453 81.900000 0.010000 0 181 1.11 1.13 1.13 1.15 1.17 1.19 1.20 1.22 1.25 1.27 1.28 1.31 1.34 1.36 1.38 1.41 1.44 1.47 1.51 1.53 1.57 1.62 1.66 1.70 1.75 1.81 1.86 1.91 1.98 2.05 2.12 2.20 2.29 2.37 2.47 2.59 2.70 2.83 2.98 3.14 3.33 3.39 3.20 0.94 0.94 0.93 0.92 0.92 0.92 0.92 0.92 0.83 0.82 0.81 0.80 0.79 0.78 0.78 0.79 0.79 0.79 0.77 0.78 0.78 0.77 0.76 0.77 0.77 0.80 0.83 0.86 0.86 0.87 0.86 1.04 1.59 1.60 1.61 1.62 2.27 2.27 2.26 2.26 2.29 2.39 2.44 2.42 2.27 2.07 2.07 3.24 3.17 3.09 2.50 2.45 2.48 2.52 2.56 0.75 0.73 0.73 0.73 0.71 0.71 0.71 0.59 0.56 0.58 0.56 0.56 0.56 0.56 0.57 0.65 0.69 0.72 0.70 0.72 0.73 0.78 0.82 0.85 0.90 1.02 1.02 1.21 1.99 2.03 2.06 2.15 2.03 3.95 2.02 1.94 2.02 1.96 1.94 1.91 1.98 1.93 1.91 1.88 1.91 1.70 1.69 1.72 1.90 1.90 1.89 1.90 1.90 1.91 1.89 1.90 1.64 1.62 1.64 1.75 1.63 1.53 1.44 1.45 1.46 1.46 1.46 1.47 1.49 1.50 1.51 1.52 1.54 1.55 1.56 1.58 1.60 1.61 1.79 2.21 2.25 2.27 2.33 0 -3.236000 10.432000 2.229135 
ODOM -3.236000 10.432000 2.229135 
ROBOTLASER1 0 -1.570796 3.141593 0.017453 81.900000 0.010000 0 181 1.30 1.33 1.35 1.37 1.40 1.44 1.47 1.50 1.53 1.57 1.61 1.65 1.70 1.74 1.80 1.86 1.92 1.98 2.04 2.12 2.19 2.28 2.37 2.46 2.57 2.68 2.81 2.95 3.11 3.30 3.36 3.23 3.18 0.94 0.93 0.93 0.92 0.92 0.92 0.91 0.83 0.82 0.82 0.79 0.79 0.79 0.79 0.78 0.79 0.78 0.77 0.77 0.77 0.77 0.77 0.77 0.77 0.81 0.81 0.88 0.87 0.87 0.84 1.04 1.59 1.60 1.61 1.61 2.24 2.23 2.21 2.19 2.18 2.19 2.18 2.17 2.16 2.08 2.07 3.26 3.18 3.11 3.03 2.45 2.47 2.51 2.56 0.00 0.74 0.73 0.71 0.69 0.69 0.66 0.55 0.56 0.56 0.55 0.56 0.57 0.56 0.57 0.64 0.71 0.78 0.76 0.77 0.76 0.81 0.83 0.87 0.95 1.03 1.04 1.24 2.00 2.03 2.05 2.08 2.00 3.96 2.12 1.95 2.02 1.97 1.94 1.91 2.24 1.93 1.91 1.89 1.91 1.70 1.69 1.70 1.90 1.89 1.88 1.88 1.91 1.91 1.90 1.89 1.79 1.62 1.62 1.76 1.65 1.53 1.45 1.43 1.43 1.44 1.46 1.47 1.48 1.49 1.50 1.51 1.53 1.54 1.55 1.57 1.58 1.60 1.62 2.20 2.24 2.31 2.30 2.46 2.36 2.39 2.34 2.44 2.47 2.51 2.56 2.60 2.63 2.68 0 -3.235000 10.431000 2.415012 
ODOM -3.235000 10.431000 2.415012 
ROBOTLASER1 0 -1.570796 3.141593 0.017453 81.900000 0.010000 0 181 1.68 1.72 1.77 1.82 1.88 1.94 2.01 2.09 2.16 2.25 2.33 2.42 2.52 2.63 2.75 2.89 3.04 3.23 3.40 3.27 3.21 0.95 0.93 0.93 0.93 0.92 0.92 0.92 0.84 0.83 0.82 0.80 0.79 0.79 0.77 0.78 0.79 0.78 0.77 0.77 0.77 0.76 0.77 0.76 0.77 0.79 0.82 0.87 0.86 0.86 0.81 0.96 1.59 1.60 1.60 1.61 1.86 2.23 2.22 2.21 2.18 2.17 2.15 2.14 2.14 2.09 2.08 2.43 3.21 3.13 3.06 2.43 2.46 2.50 2.53 2.58 2.62 2.67 2.66 2.62 0.73 0.63 0.56 0.57 0.56 0.56 0.56 0.54 0.54 0.55 0.56 0.80 0.82 0.83 0.82 0.82 0.83 0.83 0.91 1.21 1.28 1.28 1.37 2.01 2.02 2.04 2.06 1.95 3.96 2.23 1.98 2.06 2.03 1.95 1.91 1.89 1.93 1.91 1.90 1.91 1.91 1.68 1.68 1.90 1.90 1.88 1.81 1.90 1.90 1.88 1.89 1.90 1.62 1.62 1.64 1.68 1.58 1.48 1.43 1.43 1.44 1.45 1.46 1.47 1.48 1.50 1.50 1.52 1.53 1.54 1.56 1.57 1.59 1.61 2.20 2.22 2.25 2.26 2.33 2.35 2.37 2.39 0.00 2.45 2.21 2.54 2.57 2.61 2.66 2.70 2.76 2.71 2.38 2.39 2.87 2.80 2.77 2.73 0.00 2.65 2.62 0 -3.236000 10.431000 2.618343 
ODOM -3.236000 10.431000 2.618343 
ROBOTLASER1 0 -1.570796 3.141593 0.017453 81.900000 0.010000 0 181 2.41 2.51 2.62 2.75 2.88 3.04 3.21 3.39 3.28 3.21 0.95 0.94 0.94 0.93 0.93 0.93 0.93 0.84 0.83 0.81 0.80 0.79 0.79 0.79 0.79 0.78 0.78 0.77 0.77 0.76 0.77 0.78 0.76 0.77 0.79 0.81 0.87 0.87 0.86 0.82 1.04 1.59 1.61 1.60 1.61 2.05 2.24 2.22 2.21 2.19 2.18 2.16 2.15 2.14 2.09 2.08 2.34 3.21 3.14 3.06 2.43 2.46 2.50 2.54 2.58 2.63 2.67 2.67 2.63 2.57 0.55 0.56 0.56 0.56 0.55 0.54 0.56 0.56 0.58 0.66 0.85 0.84 0.88 0.84 0.84 0.83 0.83 1.07 1.24 1.28 1.32 1.98 2.00 2.01 2.04 2.06 1.96 3.96 2.22 1.98 2.06 2.02 1.95 1.92 1.88 1.93 1.92 1.90 1.91 1.90 1.69 1.68 1.90 1.90 1.89 1.76 1.90 1.90 1.89 1.88 1.90 1.62 1.62 1.64 1.69 1.58 1.48 1.43 1.44 1.45 1.46 1.46 1.47 1.48 1.49 1.50 1.51 1.53 1.55 1.56 1.57 1.58 1.61 2.20 2.21 2.24 2.25 2.32 2.35 2.36 2.40 0.00 2.44 2.45 2.54 2.57 2.61 2.65 2.69 2.75 2.79 2.37 2.38 2.98 2.80 2.77 2.73 0.00 2.65 2.63 2.60 2.57 2.53 2.50 2.48 2.45 1.81 0.00 1.38 1.39 0.00 0 -3.235000 10.431000 2.818532 
ODOM -3.235000 10.431000 2.818532 
ROBOTLASER1 0 -1.570796 3.141593 0.017453 81.900000 0.010000 0 181 0.92 0.92 0.85 0.83 0.82 0.80 0.80 0.80 0.80 0.79 0.79 0.78 0.79 0.78 0.79 0.79 0.79 0.79 0.78 0.79 0.82 0.84 0.88 0.87 0.83 0.96 1.61 1.61 1.61 1.61 1.72 2.25 2.23 2.21 2.20 2.18 2.16 2.16 2.14 2.12 2.08 2.18 3.17 3.15 3.06 2.43 2.46 2.50 2.53 2.57 2.62 2.66 2.69 2.62 2.58 0.57 0.57 0.57 0.57 0.56 0.56 0.56 0.55 0.57 0.70 0.84 0.85 0.94 0.84 0.85 0.84 0.84 1.02 1.22 1.28 1.28 1.39 2.01 2.02 2.04 2.07 1.95 2.12 2.22 1.99 1.95 2.02 1.95 1.92 1.88 1.92 1.90 1.89 1.89 1.91 1.68 1.68 1.90 1.90 1.88 1.77 1.89 1.90 1.89 1.88 1.90 1.62 1.61 1.63 1.70 1.59 1.49 1.42 1.44 1.45 1.45 1.46 1.47 1.48 1.49 1.50 1.51 1.53 1.53 1.56 1.57 1.58 1.60 2.18 2.20 2.24 2.26 2.30 2.40 2.36 2.38 0.00 2.11 2.47 2.53 2.56 2.60 2.64 2.67 0.00 2.78 2.37 2.37 2.96 2.80 2.77 2.74 0.00 2.65 2.63 2.60 2.57 2.53 2.51 2.48 1.89 1.49 1.40 1.38 1.41 1.43 1.40 1.48 0.00 1.61 1.64 1.66 1.90 2.19 2.23 2.21 2.21 2.20 2.19 2.17 2.16 0 -3.235000 10.431000 3.070034 
ODOM -3.235000 10.431000 3.070034 
ROBOTLASER1 0 -1.570796 3.141593 0.017453 81.900000 0.010000 0 181 0.78 0.78 0.77 0.78 0.78 0.78 0.78 0.80 0.83 0.87 0.88 0.87 0.85 1.14 1.61 1.61 1.62 1.63 2.26 2.24 2.22 2.21 2.19 2.17 2.17 2.15 2.15 2.09 2.08 3.07 3.04 2.97 2.84 2.45 2.48 2.52 2.56 2.60 2.65 2.70 2.67 2.62 0.57 0.58 0.57 0.57 0.58 0.56 0.56 0.57 0.58 0.61 0.81 0.86 0.85 0.85 0.85 0.85 0.84 0.86 1.18 1.21 1.27 1.36 2.01 2.02 2.04 2.05 2.08 2.01 3.96 2.08 1.95 2.03 1.96 1.94 1.91 2.23 1.92 1.90 1.89 1.92 1.70 1.68 1.70 1.90 1.89 1.88 1.88 1.89 1.89 1.88 1.89 1.72 1.61 1.61 1.74 1.64 1.52 1.44 1.43 1.44 1.45 1.46 1.47 1.48 1.49 1.49 1.51 1.52 1.54 1.55 1.56 1.58 1.59 1.61 2.19 2.22 2.25 2.27 2.35 2.35 2.37 2.37 1.49 2.46 1.82 2.54 2.58 2.62 2.66 2.07 2.08 2.61 2.36 2.47 2.80 1.84 2.75 1.47 2.67 2.64 2.62 2.58 2.55 2.52 2.49 1.95 1.49 1.39 1.35 1.37 1.41 1.39 1.38 1.37 1.39 1.45 1.52 1.54 1.55 1.97 2.20 2.21 2.20 2.18 2.17 2.17 2.16 2.15 2.15 2.14 2.14 1.75 1.74 1.75 4.04 4.04 4.04 4.04 4.04 0 -3.235000 10.431000 3.285059 
ODOM -3.235000 10.431000 3.285059 
ROBOTLASER1 0 -1.570796 3.141593 0.017453 81.900000 0.010000 0 181 1.23 1.60 1.61 1.62 1.63 2.25 2.24 2.23 2.21 2.20 2.19 2.17 2.16 2.16 2.09 2.09 2.99 2.90 2.81 2.51 2.46 2.50 2.53 2.57 2.61 2.65 2.71 2.65 2.60 0.57 0.58 0.58 0.58 0.57 0.57 0.57 0.56 0.59 0.73 0.85 0.85 0.89 0.85 0.86 0.85 0.92 1.01 1.23 1.31 1.30 1.59 2.01 2.02 2.04 2.06 2.00 2.04 3.95 2.01 1.92 2.03 1.96 1.93 1.90 1.94 1.92 1.91 1.87 1.91 1.69 1.69 1.83 1.90 1.89 1.80 1.90 1.89 1.89 1.89 1.90 1.63 1.61 1.62 1.71 1.60 1.49 1.42 1.43 1.44 1.44 1.45 1.46 1.47 1.48 1.49 1.50 1.52 1.54 1.55 1.57 1.58 1.60 1.73 2.19 2.23 2.37 2.29 2.72 2.36 2.38 0.00 0.00 0.00 2.50 2.53 2.58 2.61 2.67 1.96 2.09 2.39 2.36 2.80 2.77 0.00 0.00 1.45 2.66 2.63 2.61 2.57 2.55 2.51 2.48 1.51 1.46 1.38 1.36 1.38 1.50 1.38 1.37 1.36 1.36 1.38 1.42 1.53 1.54 1.55 1.99 2.20 2.19 2.18 2.17 2.16 2.15 2.16 2.15 2.15 2.14 1.75 1.74 1.77 4.04 4.04 4.04 4.04 4.05 4.06 4.07 4.07 4.09 4.01 3.73 4.13 4.15 4.17 4.17 4.20 4.22 4.24 0 -3.235000 10.431000 3.522423 
ODOM -3.235000 10.431000 3.522423 
ROBOTLASER1 0 -1.570796 3.141593 0.017453 81.900000 0.010000 0 181 2.17 2.16 2.15 2.08 2.08 3.01 2.90 2.81 2.73 2.47 2.50 2.54 2.57 2.62 2.65 2.71 2.67 2.63 0.58 0.58 0.58 0.58 0.57 0.58 0.58 0.57 0.58 0.72 0.85 0.87 0.87 0.85 0.85 0.85 0.94 1.03 1.27 1.37 1.38 1.99 2.02 2.02 2.04 2.06 2.02 2.04 3.96 2.02 1.93 2.02 1.96 1.93 1.90 1.96 1.92 1.90 1.89 1.92 1.69 1.70 1.78 1.90 1.90 1.80 1.90 1.90 1.91 1.90 1.89 1.63 1.61 1.63 1.73 1.60 1.50 1.43 1.43 1.44 1.45 1.46 1.47 1.48 1.49 1.51 1.52 1.52 1.54 1.56 1.57 1.58 1.59 1.87 2.19 2.22 2.38 2.28 2.72 2.35 2.37 0.00 0.00 1.54 1.69 1.94 1.93 1.81 1.65 1.64 1.65 1.65 1.91 1.94 1.73 1.54 0.00 0.00 2.52 2.54 2.54 2.54 2.53 2.51 2.48 1.50 1.40 1.37 1.35 1.46 1.57 1.38 1.37 1.36 1.36 1.36 1.36 0.00 1.53 1.51 1.54 1.94 2.19 2.18 2.17 2.16 2.15 2.16 2.15 2.14 2.15 1.74 1.74 1.76 4.04 4.03 4.04 4.04 4.05 4.05 4.06 4.08 4.09 4.01 4.08 4.12 4.14 4.16 4.18 4.20 4.22 4.24 4.27 3.82 4.32 4.35 4.39 4.41 4.45 4.16 4.53 6.27 2.18 0 -3.235000 10.431000 3.706207 
ODOM -3.235000 10.431000 3.706207 
ROBOTLASER1 0 -1.570796 3.141593 0.017453 81.900000 0.010000 0 181 2.50 2.54 2.58 2.62 2.67 2.70 2.63 2.60 0.59 0.59 0.58 0.58 0.58 0.57 0.58 0.58 0.59 0.81 0.87 0.87 0.86 0.86 0.86 0.96 2.48 1.99 2.05 2.00 2.00 2.01 2.02 2.03 2.05 2.07 1.96 2.15 2.24 1.99 2.05 2.03 1.95 1.92 1.91 1.93 1.92 1.90 1.92 1.84 1.69 1.70 1.90 1.90 1.89 1.89 1.90 1.90 1.90 1.89 1.91 1.62 1.62 1.73 1.68 1.56 1.45 1.43 1.44 1.45 1.46 1.46 1.48 1.49 1.50 1.51 1.52 1.54 1.54 1.56 1.58 1.59 1.61 2.20 2.21 2.24 2.25 2.31 2.34 2.36 2.39 0.00 1.97 1.54 1.63 1.62 1.63 1.63 1.63 1.63 1.63 1.62 1.61 1.63 1.56 1.56 2.51 0.00 2.45 2.43 2.43 2.42 2.41 2.40 1.53 1.49 1.37 1.36 1.38 1.52 1.38 1.37 1.36 1.35 1.35 1.35 1.36 1.41 1.52 1.51 1.53 1.90 2.19 2.18 2.17 2.16 2.16 2.15 2.14 2.14 1.89 1.73 1.75 4.04 4.04 4.04 4.05 4.05 4.05 4.05 4.07 4.08 4.08 4.10 3.55 4.13 4.15 4.17 4.18 4.12 4.19 3.71 4.15 4.31 4.33 4.36 4.36 4.42 4.46 3.89 6.41 6.21 2.16 2.08 1.77 1.72 1.68 1.63 1.59 1.55 1.51 1.47 1.44 0 -3.234000 10.430000 3.893830 
ODOM -3.234000 10.430000 3.893830 
ROBOTLASER1 0 -1.570796 3.141593 0.017453 81.900000 0.010000 0 181 0.57 0.57 0.58 0.57 0.56 0.71 0.86 0.86 0.87 0.86 0.85 1.04 2.20 2.50 2.06 2.00 2.01 2.02 2.03 2.03 2.05 2.07 1.97 2.06 2.23 2.01 1.93 2.04 1.97 1.93 1.91 1.94 1.93 1.92 1.90 1.92 1.70 1.69 1.90 1.91 1.90 1.84 1.91 1.91 1.90 1.90 1.92 1.64 1.62 1.64 1.71 1.60 1.49 1.44 1.44 1.45 1.46 1.46 1.48 1.48 1.50 1.51 1.52 1.54 1.54 1.56 1.58 1.60 1.61 2.20 2.21 2.24 2.26 2.30 2.56 2.36 2.38 0.00 1.84 1.55 1.64 1.58 1.58 1.57 1.58 1.60 1.60 1.55 1.55 1.55 1.57 1.54 1.79 0.00 2.45 2.43 2.41 2.38 2.35 2.33 2.00 1.50 1.38 1.35 1.39 1.41 1.39 1.38 1.37 1.36 1.35 1.35 1.36 1.37 1.46 1.51 1.51 1.54 2.15 2.18 2.17 2.16 2.16 2.15 2.16 2.15 2.13 1.74 1.74 4.04 4.04 4.04 4.04 4.04 4.05 4.06 4.07 4.07 4.09 4.04 3.63 4.14 4.14 4.16 4.18 4.20 4.22 4.23 4.27 3.97 4.33 4.35 4.38 4.42 4.45 4.08 4.53 6.28 2.18 2.09 1.87 1.74 1.69 1.64 1.60 1.56 1.52 1.49 1.45 1.42 1.39 1.37 1.35 1.32 1.30 1.27 1.25 1.22 1.20 1.18 1.17 0 -3.234000 10.431000 4.086863 
ODOM -3.234000 10.431000 4.086863 
ROBOTLASER1 0 -1.570796 3.141593 0.017453 81.900000 0.010000 0 181 2.08 2.38 2.05 2.06 2.00 2.01 2.01 2.03 2.03 2.06 2.08 1.98 2.12 2.24 2.01 2.06 2.05 1.97 1.93 1.92 1.95 1.92 1.91 1.92 1.85 1.70 1.71 1.91 1.91 1.90 1.90 1.91 1.91 1.90 1.90 1.91 1.63 1.63 1.75 1.67 1.55 1.45 1.43 1.44 1.45 1.46 1.47 1.48 1.49 1.51 1.52 1.53 1.54 1.55 1.57 1.58 1.60 1.62 2.20 2.21 2.24 2.26 2.33 2.35 2.37 2.38 1.78 1.77 1.55 1.63 1.58 1.58 1.60 1.62 1.63 1.59 1.55 1.57 1.56 1.54 1.63 1.76 2.48 2.46 2.43 2.40 2.38 2.35 2.32 1.52 1.44 1.34 1.34 1.40 1.39 1.37 1.36 1.36 1.35 1.34 1.35 1.36 1.38 1.50 1.51 1.51 1.56 2.18 2.18 2.17 2.16 2.16 2.15 2.14 2.14 1.78 1.73 1.75 4.04 4.04 4.04 4.04 4.05 4.05 4.06 4.07 4.08 4.07 4.10 3.55 4.12 4.14 4.16 4.19 4.13 4.20 3.73 4.27 4.30 4.32 4.36 4.38 4.42 4.46 3.89 6.43 6.23 2.14 2.07 1.76 1.72 1.67 1.62 1.59 1.55 1.51 1.48 1.44 1.41 1.38 1.36 1.33 1.30 1.28 1.27 1.24 1.22 1.20 1.18 1.16 1.15 1.14 1.12 1.11 1.09 1.08 1.07 1.06 1.04 1.03 1.01 0 -3.234000 10.430000 4.292114 
ODOM -3.234000 10.430000 4.292114 
ROBOTLASER1 0 -1.570796 3.141593 0.017453 81.900000 0.010000 0 181 2.00 2.01 2.04 1.97 1.93 1.91 1.94 1.93 1.91 1.92 1.90 1.70 1.71 1.92 1.91 1.91 1.90 1.92 1.91 1.90 1.90 1.92 1.64 1.63 1.77 1.68 1.55 1.45 1.44 1.45 1.46 1.47 1.48 1.49 1.50 1.51 1.52 1.53 1.54 1.55 1.57 1.59 1.60 1.62 2.20 2.22 2.25 2.27 2.33 2.35 2.37 2.38 1.50 0.00 0.00 1.70 1.97 1.87 1.83 1.65 1.64 1.65 1.64 1.65 1.65 1.56 1.79 1.75 2.48 2.46 2.43 2.40 2.38 2.37 2.35 1.51 1.43 1.37 1.35 1.41 1.42 1.38 1.37 1.35 1.35 1.34 1.35 1.36 1.39 1.51 1.50 1.51 1.57 2.18 2.17 2.16 2.16 2.15 2.15 2.14 2.14 1.78 1.74 1.74 4.04 4.04 4.04 4.04 4.05 4.05 4.06 4.07 4.07 4.08 4.10 3.54 4.12 4.14 4.16 4.18 4.14 4.21 3.79 4.27 4.29 4.32 4.35 4.38 4.41 4.45 3.87 6.45 6.24 2.14 2.07 1.77 1.72 1.67 1.62 1.58 1.54 1.50 1.47 1.44 1.41 1.38 1.35 1.33 1.31 1.28 1.26 1.23 1.22 1.20 1.18 1.16 1.14 1.14 1.12 1.10 1.09 1.08 1.06 1.05 1.05 1.03 1.02 1.02 1.00 0.99 0.98 0.98 0.98 0.97 0.96 0.96 0.95 0.94 0.94 0.93 0.93 0 -3.234000 10.430000 4.521450 
ODOM -3.234000 10.430000 4.521450 
ROBOTLASER1 0 -1.570796 3.141593 0.017453 81.900000 0.010000 0 181 1.94 1.70 1.70 1.71 1.92 1.91 1.90 1.90 1.92 1.92 1.91 1.91 1.70 1.63 1.65 1.77 1.65 1.53 1.45 1.45 1.46 1.47 1.47 1.49 1.49 1.51 1.52 1.53 1.54 1.55 1.56 1.58 1.59 1.61 1.69 2.21 2.23 2.27 2.29 2.40 2.36 2.38 0.00 0.00 0.00 2.49 2.54 2.59 2.61 2.66 0.00 1.80 1.96 2.33 2.46 1.87 1.54 0.00 0.00 2.53 2.51 2.48 2.47 2.46 2.46 2.45 1.49 1.38 1.34 1.37 1.48 1.42 1.38 1.37 1.36 1.35 1.35 1.35 1.38 1.47 1.52 1.50 1.54 2.08 2.18 2.17 2.17 2.16 2.15 2.14 2.14 2.13 1.74 1.73 1.75 4.03 4.03 4.04 4.04 4.05 4.05 4.06 4.07 4.08 4.09 4.10 3.63 4.13 4.14 4.16 4.19 4.12 4.14 3.66 3.87 4.29 4.33 4.36 4.32 4.41 4.46 3.93 6.41 6.20 2.12 2.05 1.75 1.70 1.65 1.61 1.57 1.53 1.50 1.46 1.43 1.40 1.37 1.35 1.32 1.30 1.28 1.25 1.23 1.21 1.19 1.17 1.16 1.14 1.13 1.11 1.10 1.09 1.07 1.06 1.05 1.04 1.03 1.02 1.01 1.00 1.00 0.99 0.98 0.98 0.97 0.96 0.95 0.95 0.94 0.94 0.94 0.93 0.93 0.92 0.92 0.92 0.91 0.90 0.90 0.90 0.90 0 -3.234000 10.430000 4.703488 
ODOM -3.234000 10.430000 4.703488 
ROBOTLASER1 0 -1.570796 3.141593 0.017453 81.900000 0.010000 0 181 1.70 1.84 1.91 1.90 1.82 1.92 1.92 1.92 1.90 1.91 1.64 1.64 1.65 1.73 1.61 1.49 1.45 1.46 1.46 1.48 1.48 1.49 1.50 1.51 1.52 1.53 1.54 1.56 1.57 1.59 1.60 1.62 2.20 2.21 2.24 2.27 2.31 2.72 2.37 2.39 0.00 0.00 0.00 2.52 2.56 2.60 2.63 2.68 1.65 1.87 2.35 2.36 2.70 2.75 0.00 0.00 0.00 2.56 2.56 2.55 2.54 2.53 2.50 1.93 1.49 1.37 1.35 1.38 1.53 1.38 1.38 1.36 1.35 1.35 1.36 1.36 1.39 1.52 1.51 1.51 1.56 2.19 2.18 2.16 2.16 2.16 2.15 2.14 2.14 2.10 1.73 1.74 4.03 4.03 4.03 4.04 4.03 4.05 4.05 4.06 4.07 4.08 4.00 4.10 4.13 4.14 4.15 4.17 4.19 4.22 4.23 4.04 3.71 4.31 4.34 4.37 4.39 4.43 4.47 4.51 6.32 2.17 2.09 2.02 1.73 1.68 1.64 1.59 1.55 1.51 1.48 1.45 1.42 1.39 1.36 1.33 1.31 1.28 1.27 1.24 1.22 1.20 1.18 1.17 1.15 1.14 1.12 1.11 1.09 1.08 1.07 1.05 1.04 1.03 1.02 1.01 1.00 1.00 0.99 0.99 0.97 0.97 0.96 0.96 0.95 0.95 0.94 0.94 0.93 0.92 0.92 0.92 0.92 0.91 0.91 0.91 0.91 0.90 0.89 0.89 0.90 0 -3.234000 10.430000 -1.537461 
ODOM -3.234000 10.430000 -1.537461 
ROBOTLASER1 0 -1.570796 3.141593 0.017453 81.900000 0.010000 0 181 1.70 1.57 1.47 1.45 1.45 1.46 1.48 1.48 1.49 1.51 1.52 1.53 1.54 1.55 1.57 1.58 1.59 1.61 1.63 2.22 2.23 2.25 2.27 2.34 2.36 2.38 2.38 1.99 2.46 1.84 2.55 2.57 2.61 2.64 2.69 2.72 2.05 2.37 2.38 2.96 0.00 2.78 1.48 2.69 2.66 2.63 2.59 2.56 2.53 2.51 1.52 1.48 1.37 1.37 1.40 1.57 1.38 1.37 1.36 1.35 1.36 1.36 1.38 1.52 1.52 1.50 1.54 2.12 2.19 2.18 2.17 2.16 2.16 2.15 2.14 2.15 1.76 1.74 1.75 4.03 4.03 4.03 4.04 4.04 4.05 4.05 4.06 4.06 4.08 4.07 3.53 4.11 4.13 4.15 4.17 4.17 4.22 4.14 4.26 4.29 4.32 4.34 4.37 4.41 4.44 3.96 4.52 6.26 2.15 2.07 1.76 1.71 1.66 1.62 1.58 1.54 1.51 1.47 1.43 1.41 1.38 1.35 1.32 1.30 1.27 1.25 1.23 1.21 1.19 1.17 1.16 1.14 1.13 1.11 1.09 1.08 1.07 1.06 1.05 1.04 1.02 1.01 1.01 0.99 0.99 0.98 0.98 0.97 0.97 0.96 0.95 0.94 0.94 0.94 0.93 0.92 0.92 0.92 0.92 0.92 0.92 0.91 0.92 0.90 0.90 0.90 0.90 0.89 0.62 0.56 0.57 0.57 0.57 0.57 0.57 0.57 0.57 0.57 0.57 0.57 0.57 0 -3.233000 10.430000 -1.315280 
ODOM -3.233000 10.430000 -1.315280 
ROBOTLASER1 0 -1.570796 3.141593 0.017453 81.900000 0.010000 0 181 2.30 1.81 2.32 2.34 2.34 2.36 0.98 0.95 0.97 0.98 1.01 0.96 1.02 2.54 2.39 2.34 2.26 2.19 2.12 2.06 2.02 1.96 1.92 1.88 1.83 1.79 1.75 1.72 1.68 1.65 1.61 1.58 1.56 1.54 1.51 1.48 1.46 1.45 1.43 1.41 1.38 1.37 1.35 1.34 1.32 1.32 0.88 0.82 0.82 0.81 0.82 0.99 1.23 1.21 1.20 1.16 1.20 1.26 1.32 1.40 1.48 1.57 3.07 3.09 3.08 3.07 3.07 3.06 3.05 3.05 3.04 3.04 3.04 3.03 3.03 3.03 3.03 3.04 3.04 3.04 3.05 3.05 2.98 2.50 3.07 3.08 3.09 3.10 3.11 3.12 3.14 3.15 3.08 2.95 3.21 2.64 3.25 3.27 3.30 3.33 3.26 3.38 3.41 3.45 2.84 5.20 5.05 4.92 4.78 4.66 4.55 4.45 4.35 1.22 1.17 1.14 1.11 1.08 1.07 1.05 1.03 1.02 0.90 0.88 0.79 0.78 0.76 0.75 0.74 0.73 0.73 0.72 0.71 0.71 0.69 0.69 0.68 0.68 0.68 0.66 0.66 0.66 0.65 0.64 0.63 0.63 0.63 0.63 0.63 0.63 0.62 0.62 0.62 0.62 0.60 0.61 0.59 0.60 0.60 0.60 0.60 0.60 0.60 0.60 0.60 0.59 0.60 0.59 0.59 0.60 0.59 0.59 0.60 0.60 0.60 0.61 0.60 0.60 0.60 0.60 0.60 0 -2.861000 9.455000 -1.257510 
ODOM -2.861000 9.455000 -1.257510 
ROBOTLASER1 0 -1.570796 3.141593 0.017453 81.900000 0.010000 0 181 0.60 0.60 0.60 0.61 0.61 0.62 0.61 0.62 0.62 0.62 0.62 0.63 0.63 0.64 0.64 0.65 0.65 0.65 0.66 0.67 0.67 0.68 0.68 0.69 0.69 0.70 0.71 0.72 0.73 0.74 0.74 0.76 0.77 0.77 0.00 0.00 0.00 0.00 0.00 1.03 1.05 0.00 1.56 1.67 1.73 2.42 2.39 2.36 2.34 1.86 1.84 1.81 1.83 2.22 2.21 2.18 2.17 2.15 2.14 2.13 2.11 2.10 2.08 2.07 2.06 2.05 2.04 2.03 2.02 2.01 2.01 2.00 2.00 2.00 1.99 1.99 1.98 1.98 1.98 1.98 1.98 1.98 1.97 1.97 1.98 1.98 1.90 1.45 1.53 1.99 1.99 2.00 2.01 2.02 2.02 2.03 2.04 2.06 2.07 2.02 2.09 2.11 2.08 2.14 2.15 1.56 2.18 1.74 1.63 2.24 2.27 2.28 2.31 2.24 2.36 2.39 2.42 2.45 2.48 3.91 3.83 1.86 3.68 3.60 3.54 3.48 3.42 3.37 3.31 3.26 3.06 3.02 2.98 2.94 2.90 2.86 2.84 2.80 2.77 2.74 2.71 2.69 2.67 2.65 2.62 2.85 3.02 3.14 3.27 3.41 3.57 3.74 3.94 4.16 4.31 4.55 4.83 5.10 5.07 5.05 5.03 5.02 5.01 4.99 4.98 4.98 4.96 4.48 3.62 3.60 3.61 4.47 4.47 4.47 4.47 4.46 4.47 0.78 0.70 0.64 0.60 0 -2.610000 8.405000 -1.374447 
ODOM -2.610000 8.405000 -1.374447 
ROBOTLASER1 0 -1.570796 3.141593 0.017453 81.900000 0.010000 0 181 2.19 1.42 1.09 2.23 2.25 2.27 2.25 2.17 2.11 2.04 1.99 1.93 1.89 1.90 1.47 1.45 1.44 1.44 1.45 1.58 2.05 2.09 2.11 2.15 2.12 1.54 1.52 1.52 1.51 1.50 1.93 1.90 1.88 1.85 1.83 1.82 1.79 1.77 1.75 1.73 1.71 1.71 1.69 1.67 1.66 1.64 1.64 1.62 1.61 1.61 1.59 1.58 1.57 1.56 1.56 1.55 1.55 1.53 1.53 1.53 1.52 1.52 1.52 1.51 1.51 1.51 1.51 1.50 1.50 1.50 1.50 1.51 1.42 0.93 0.94 1.50 1.52 1.52 1.52 1.53 1.53 1.54 1.55 1.56 1.55 1.57 1.58 1.58 1.59 1.60 1.52 1.62 1.63 1.55 1.66 1.67 1.68 1.70 1.45 1.09 1.62 1.77 1.15 1.16 1.84 1.86 1.88 1.81 1.93 1.96 1.99 2.01 2.06 2.29 3.31 3.25 3.20 3.15 1.44 1.47 3.01 2.97 2.93 2.90 2.86 2.68 2.66 2.63 2.60 2.58 2.56 2.53 2.51 2.49 2.47 2.45 2.43 2.42 2.40 2.39 2.38 2.36 2.52 2.84 3.04 3.26 3.50 3.86 4.07 4.36 4.86 4.89 4.89 4.88 4.87 4.87 4.86 4.86 4.85 4.85 4.85 4.51 4.41 4.36 3.53 3.53 3.60 4.41 4.42 4.43 4.44 4.46 4.48 4.47 4.51 3.56 5.05 5.07 5.11 5.14 5.17 0 -2.501000 7.937000 -1.172163 
ODOM -2.501000 7.937000 -1.172163 
ROBOTLASER1 0 -1.570796 3.141593 0.017453 81.900000 0.010000 0 181 1.43 1.44 1.48 2.01 2.04 2.08 2.11 2.13 1.51 1.51 1.51 1.48 1.48 1.94 1.91 1.88 1.85 1.82 1.81 1.78 1.76 1.74 1.71 1.70 1.68 1.67 1.65 1.63 1.62 1.60 1.59 1.57 1.56 1.55 1.55 1.53 1.53 1.51 1.51 1.50 1.49 1.49 1.48 1.47 1.47 1.46 1.46 1.46 1.45 1.45 1.45 1.44 1.45 1.44 1.45 1.44 1.35 0.88 0.90 1.44 1.45 1.45 1.45 1.46 1.46 1.47 1.47 1.48 1.48 1.49 1.50 1.51 1.50 1.52 1.53 1.44 1.53 1.56 1.49 1.54 1.60 1.61 1.62 1.64 1.05 1.03 1.68 1.70 1.07 1.09 1.75 1.78 1.80 1.72 1.86 1.88 1.92 1.95 1.98 2.00 3.24 3.19 3.14 3.10 3.05 1.39 2.96 2.92 2.89 2.84 2.81 2.69 2.61 2.58 2.56 2.53 2.50 2.49 2.47 2.44 2.43 2.41 2.39 2.38 2.36 2.35 2.34 2.32 2.31 2.51 2.84 3.05 3.31 3.63 3.95 4.14 4.54 4.86 4.84 4.84 4.83 4.82 4.83 4.82 4.82 4.81 4.83 4.80 4.35 4.37 3.98 3.50 3.50 4.36 4.38 4.40 4.41 4.42 4.43 4.37 4.42 4.50 3.54 5.05 5.07 5.11 5.13 5.18 5.21 5.26 5.30 5.34 5.39 5.45 5.50 5.55 5.61 4.08 5.71 1.38 1.34 0 -2.465000 7.875000 -0.933402 
ODOM -2.465000 7.875000 -0.933402 
ROBOTLASER1 0 -1.570796 3.141593 0.017453 81.900000 0.010000 0 181 1.85 1.82 1.80 1.78 1.76 1.74 1.72 1.69 1.68 1.65 1.64 1.62 1.61 1.60 1.58 1.56 1.55 1.54 1.52 1.51 1.50 1.49 1.47 1.47 1.46 1.45 1.45 1.44 1.44 1.43 1.43 1.42 1.42 1.41 1.41 1.40 1.40 1.40 1.39 1.38 0.90 0.83 0.99 1.39 1.39 1.40 1.40 1.40 1.41 1.40 1.41 1.41 1.42 1.42 1.43 1.43 1.44 1.44 1.45 1.46 1.47 1.39 1.49 1.50 1.42 1.51 1.53 1.54 1.55 1.57 0.95 0.96 1.61 1.62 1.01 1.00 1.67 1.70 1.72 1.73 1.67 1.80 1.82 1.84 1.87 1.91 1.93 3.17 3.11 3.06 3.01 2.97 1.30 1.55 2.85 2.81 2.78 2.75 2.65 2.55 2.52 2.50 2.48 2.45 2.43 2.41 2.39 2.38 2.36 2.34 2.32 2.31 2.30 2.28 2.27 2.26 2.24 2.63 2.84 3.06 3.31 3.73 3.97 4.25 4.79 4.79 4.79 4.79 4.78 4.78 4.77 4.77 4.77 4.77 4.78 4.76 4.30 4.31 3.49 3.45 3.46 4.34 4.35 4.36 4.37 4.38 4.41 4.43 4.33 4.46 3.55 5.02 5.06 5.09 5.13 5.17 5.21 5.24 5.29 5.33 5.39 5.45 5.50 5.55 5.61 4.07 5.74 4.56 3.59 1.38 1.34 1.31 1.28 1.25 1.22 0.99 0.98 0.96 0.94 0.92 0.90 0 -2.415000 7.823000 -0.710000 
ODOM -2.415000 7.823000 -0.710000 
ROBOTLASER1 0 -1.570796 3.141593 0.017453 81.900000 0.010000 0 181 1.51 1.50 1.48 1.47 1.45 1.44 1.43 1.43 1.41 1.40 1.40 1.39 1.38 1.38 1.37 1.36 1.35 1.34 0.96 0.76 0.75 1.31 1.30 1.31 1.24 1.30 1.31 1.30 1.30 1.30 1.30 1.30 1.30 1.30 1.30 1.30 1.30 1.30 1.31 1.32 1.32 1.32 1.32 1.33 1.33 1.34 1.26 1.36 1.36 1.28 1.32 1.38 1.40 1.23 0.80 0.81 1.44 1.45 1.42 0.85 0.85 1.49 1.51 1.53 1.55 1.56 1.59 1.50 1.63 1.65 1.67 1.70 1.72 1.75 1.76 3.05 2.99 2.94 2.89 2.85 1.16 1.14 2.73 2.69 2.66 2.62 2.59 2.56 2.38 2.36 2.33 2.31 2.29 2.27 2.26 2.24 2.22 2.20 2.19 2.18 2.17 2.15 2.14 2.13 2.13 2.11 2.10 2.09 2.58 2.79 3.04 3.44 3.78 3.98 4.53 4.66 4.66 4.65 4.64 4.64 4.63 4.63 4.63 4.63 4.64 4.61 4.26 4.18 4.17 3.82 3.29 3.24 3.39 4.24 4.25 4.27 4.28 4.29 4.32 4.34 4.09 3.44 3.54 4.97 5.00 5.04 5.07 5.13 5.17 5.22 5.26 5.32 5.37 5.43 5.50 5.56 4.12 5.69 4.51 4.74 3.53 3.40 0.00 6.20 4.42 1.34 1.31 1.28 1.26 1.24 1.22 1.19 1.18 1.12 0.99 0.97 0.95 0.94 0.93 0.92 0.91 0 -2.274000 7.731000 -0.520283 
ODOM -2.274000 7.731000 -0.520283 
ROBOTLASER1 0 -1.570796 3.141593 0.017453 81.900000 0.010000 0 181 1.35 1.34 1.33 0.73 0.74 1.13 1.30 1.30 1.30 1.31 1.20 1.28 1.29 1.28 1.28 1.28 1.28 1.28 1.28 1.28 1.28 1.27 1.27 1.26 1.26 1.28 1.28 1.28 1.29 1.29 1.29 1.29 1.29 1.22 1.31 1.32 1.31 1.24 1.33 1.01 0.75 0.76 1.36 1.37 1.38 0.82 0.80 0.98 1.43 1.45 1.46 1.47 1.49 1.50 1.52 1.44 1.56 1.58 1.60 1.62 1.64 1.67 1.69 1.92 2.98 2.92 2.88 2.82 2.79 1.08 1.09 2.67 2.63 2.60 2.56 2.53 2.50 2.33 2.31 2.28 2.26 2.23 2.21 2.20 2.18 2.16 2.14 2.13 2.11 2.09 2.08 2.06 2.05 2.04 2.04 2.03 2.03 2.02 2.53 2.75 3.05 3.43 3.76 3.98 4.57 4.59 4.58 4.58 4.58 4.57 4.57 4.57 4.57 4.58 4.58 4.55 4.25 4.11 4.12 4.14 3.19 3.18 3.21 4.17 4.19 4.20 4.23 4.24 4.26 4.29 4.31 3.43 3.37 3.55 4.95 4.99 5.03 5.08 5.12 5.17 5.22 5.27 5.32 5.39 5.45 5.51 5.58 3.97 4.47 4.71 0.00 3.29 3.43 6.16 4.40 4.50 3.36 1.33 1.30 1.29 1.26 1.23 1.22 1.19 1.18 1.17 1.16 1.00 0.97 0.95 0.94 0.94 0.92 0.92 0.90 0.90 0.89 0.89 0.88 0.88 0.87 0 -2.208000 7.701000 -0.337896 
ODOM -2.208000 7.701000 -0.337896 
ROBOTLASER1 0 -1.570796 3.141593 0.017453 81.900000 0.010000 0 181 1.26 1.26 1.26 1.25 1.26 1.25 1.24 1.25 1.26 1.26 1.26 1.26 1.27 1.27 1.28 1.27 1.20 1.28 1.29 1.28 1.20 0.72 0.72 0.94 1.33 1.33 1.33 0.75 0.76 1.07 1.37 1.38 1.39 1.40 1.41 1.42 1.44 1.46 1.48 1.39 1.51 1.52 1.54 1.56 1.58 1.60 1.62 1.65 3.00 2.94 2.88 2.83 2.77 1.02 1.03 2.66 2.61 2.58 2.54 2.51 2.48 2.44 2.36 2.25 2.22 2.20 2.18 2.16 2.14 2.12 2.10 2.08 2.08 2.06 2.04 2.03 2.02 2.00 1.99 1.99 1.98 1.97 1.96 1.95 2.45 2.67 2.90 3.29 3.64 3.85 4.39 4.52 4.52 4.51 4.50 4.50 4.49 4.50 4.50 4.51 4.51 4.52 4.50 4.04 4.05 4.06 3.19 3.11 3.11 3.24 4.13 4.15 4.15 4.18 4.19 4.22 4.25 4.26 3.30 3.32 3.35 4.91 4.95 4.99 5.04 5.09 5.13 5.19 5.24 5.30 5.36 5.42 5.49 0.00 3.94 4.67 3.33 3.20 3.24 3.40 3.51 3.85 4.46 3.32 3.27 3.09 1.28 1.26 1.24 1.23 1.21 1.18 1.18 1.16 1.14 1.13 1.13 0.97 0.95 0.93 0.93 0.92 0.91 0.90 0.89 0.89 0.89 0.88 0.88 0.87 0.87 0.87 0.86 0.86 0.86 0.85 0.85 0.85 0.84 0.84 0.85 0 -2.138000 7.686000 -0.098611 
ODOM -2.138000 7.686000 -0.098611 
ROBOTLASER1 0 -1.570796 3.141593 0.017453 81.900000 0.010000 0 181 1.26 1.11 0.71 0.70 1.27 1.28 1.29 1.30 0.73 0.74 0.88 1.33 1.34 1.35 1.36 1.37 1.38 1.38 1.40 1.40 1.42 1.42 1.44 1.36 1.47 1.49 1.50 1.52 1.54 1.55 1.57 1.60 1.77 2.97 2.92 2.86 0.98 0.96 0.97 2.66 2.61 2.58 2.53 2.50 2.47 2.43 2.40 2.37 2.20 2.17 2.15 2.13 2.11 2.08 2.07 2.05 2.03 2.01 2.00 1.99 1.97 1.96 1.95 1.94 1.93 1.92 1.90 1.90 1.89 1.88 2.38 2.58 2.81 3.17 3.51 3.71 4.13 4.45 4.45 4.45 4.43 4.43 4.43 4.42 4.42 4.43 4.43 4.44 4.41 3.96 3.97 3.98 4.00 3.04 3.02 3.04 4.04 4.05 4.07 4.09 4.11 4.13 4.16 4.18 4.20 3.23 3.25 3.39 4.85 4.89 4.94 4.98 5.04 5.08 5.13 5.19 5.25 5.31 5.37 5.44 5.51 3.91 4.59 3.29 3.13 3.21 3.19 3.19 3.38 3.69 6.21 3.21 3.15 3.05 3.11 1.23 1.22 1.20 1.18 1.17 1.16 1.14 1.13 1.11 1.10 1.10 1.11 0.96 0.91 0.90 0.90 0.88 0.88 0.88 0.87 0.87 0.86 0.86 0.85 0.85 0.84 0.84 0.84 0.85 0.84 0.84 0.84 0.84 0.84 0.83 0.84 0.85 0.85 0.93 1.17 1.18 1.18 1.31 1.28 1.28 2.79 0 -2.067000 7.688000 0.135787 
ODOM -2.067000 7.688000 0.135787 
ROBOTLASER1 0 -1.570796 3.141593 0.017453 81.900000 0.010000 0 181 1.35 1.36 1.36 1.38 1.38 1.41 1.42 1.36 1.36 1.46 1.47 1.48 1.50 1.52 1.53 1.54 1.56 1.57 3.07 0.95 0.93 0.94 2.81 2.75 2.70 2.63 2.60 2.56 2.52 2.48 2.45 2.40 2.36 2.34 2.27 2.13 2.11 2.08 2.05 2.03 2.01 1.99 1.97 1.95 1.94 1.93 1.92 1.90 1.88 1.87 1.86 1.85 1.83 1.82 1.82 1.81 1.80 2.22 2.37 2.57 2.79 3.10 3.42 3.60 3.97 4.37 4.36 4.36 4.35 4.34 4.34 4.33 4.33 4.34 4.34 4.34 4.33 4.33 3.87 3.88 3.89 3.07 2.95 2.95 2.96 3.95 3.97 3.98 4.00 4.00 4.03 4.06 4.08 3.57 3.13 3.16 3.31 4.77 4.80 4.85 4.89 4.94 4.98 5.04 5.10 5.16 5.22 5.28 5.35 5.41 3.77 4.12 4.42 3.17 3.04 3.16 3.09 3.12 3.24 3.29 3.18 3.12 2.96 3.03 3.03 3.01 1.17 1.15 1.14 1.12 1.11 1.09 1.08 1.07 1.06 1.05 1.04 1.03 1.03 1.05 1.07 0.87 0.85 0.85 0.85 0.84 0.83 0.83 0.82 0.81 0.81 0.81 0.82 0.81 0.81 0.82 0.81 0.81 0.80 0.81 0.80 0.81 0.81 0.81 0.81 0.81 0.81 0.82 1.02 1.16 1.17 1.28 1.28 2.81 6.27 4.17 3.86 3.81 3.83 3.77 3.74 0 -1.973000 7.714000 0.331089 
ODOM -1.973000 7.714000 0.331089 
ROBOTLASER1 0 -1.570796 3.141593 0.017453 81.900000 0.010000 0 181 2.01 1.81 1.77 1.73 1.69 1.65 1.62 1.59 1.56 1.53 1.50 1.49 1.45 1.43 1.42 1.39 1.38 1.35 1.33 1.32 1.30 1.29 1.29 1.42 1.46 1.50 1.54 1.63 1.69 1.74 1.79 1.85 1.93 1.99 2.08 2.16 2.25 2.37 2.48 2.61 2.76 2.91 3.00 3.19 3.42 3.70 3.72 3.70 3.69 3.68 3.67 3.66 3.65 3.65 3.65 3.65 3.64 3.64 3.64 3.62 3.17 3.17 3.17 2.60 2.25 2.22 2.23 2.32 3.21 3.22 3.23 3.24 3.26 3.27 3.26 3.30 3.32 3.35 3.36 2.67 2.39 2.41 2.42 2.45 4.05 4.08 4.13 4.16 4.20 4.24 4.29 4.34 4.39 4.44 4.51 4.57 4.63 4.69 4.77 3.31 3.09 3.56 3.81 4.66 2.51 2.49 2.36 2.41 2.45 2.48 2.55 2.61 2.94 3.88 2.53 2.49 2.46 2.35 2.45 2.44 2.42 2.43 2.46 2.51 2.58 2.52 3.42 3.40 3.39 3.48 5.12 5.15 5.66 6.40 6.66 7.02 8.82 0.00 6.14 5.58 6.38 6.08 6.01 6.08 5.04 5.76 6.09 6.05 0.75 0.70 0.69 0.70 0.70 0.70 0.70 0.70 0.69 0.70 0.70 0.70 0.71 0.71 0.71 0.71 0.72 0.72 0.71 0.72 0.72 0.73 0.74 0.98 0.93 0.89 0.84 0.82 0.77 0.76 0.74 0.73 0.70 0 -1.277000 7.976000 0.572119 
ODOM -1.277000 7.976000 0.572119 
ROBOTLASER1 0 -1.570796 3.141593 0.017453 81.900000 0.010000 0 181 1.27 1.25 1.27 1.39 1.41 1.45 1.47 1.50 1.59 1.62 1.67 1.71 1.75 1.80 1.86 1.92 1.97 2.03 2.11 2.17 2.26 2.35 2.45 2.56 2.68 2.81 2.88 3.01 3.18 3.38 3.60 3.62 3.60 3.60 3.58 3.56 3.56 3.55 3.54 3.54 3.52 3.52 3.52 3.52 3.48 3.04 3.05 3.06 2.17 2.19 2.15 2.20 2.26 3.06 3.07 3.08 3.09 3.10 3.11 3.12 3.14 3.15 3.16 3.19 2.66 3.22 2.48 2.41 2.28 3.84 3.87 3.90 3.94 3.98 4.01 4.06 4.09 4.13 4.19 4.23 4.28 4.34 4.39 4.46 4.52 4.59 4.66 2.91 3.69 3.62 3.57 4.50 2.31 2.29 2.20 2.26 2.42 2.53 2.53 2.48 3.74 3.72 2.37 2.34 2.33 2.22 2.19 2.28 2.28 2.28 2.28 2.31 2.37 2.52 2.37 3.25 3.26 3.24 3.41 4.97 5.16 6.26 6.45 6.87 0.00 5.56 5.99 5.44 6.09 5.94 5.96 5.86 5.56 4.93 5.55 5.95 5.94 5.98 5.04 5.04 5.06 5.06 4.37 3.36 0.94 0.78 0.71 0.64 0.61 0.60 0.60 0.60 0.61 0.59 0.61 0.62 0.62 0.62 0.63 0.62 0.63 0.64 0.64 0.65 0.65 0.65 0.66 0.67 0.67 0.68 0.69 0.73 0.84 0.81 0.80 0.77 0.75 0.74 0.73 0.71 0.71 0 -1.155000 8.090000 0.785747 
ODOM -1.155000 8.090000 0.785747 
ROBOTLASER1 0 -1.570796 3.141593 0.017453 81.900000 0.010000 0 181 1.98 2.04 2.10 2.15 2.21 2.28 2.36 2.44 2.52 2.62 2.71 2.76 2.87 2.98 3.11 3.27 3.45 3.52 3.50 3.48 3.46 3.44 3.44 3.42 3.41 3.41 3.39 3.39 3.38 3.38 3.37 2.99 2.88 2.01 2.01 2.00 2.01 2.00 2.88 2.88 2.88 2.88 2.89 2.90 2.91 2.92 2.92 2.93 2.94 2.96 2.60 2.98 3.00 2.03 2.03 3.56 3.59 3.61 3.64 3.66 3.70 3.73 3.77 3.80 3.83 3.88 3.92 3.96 4.01 4.06 4.10 4.15 4.20 4.26 4.33 4.39 2.68 4.53 3.29 3.54 3.53 4.29 4.94 4.93 1.99 2.03 2.19 3.25 4.95 4.91 3.45 3.38 2.39 2.12 2.11 2.10 2.12 1.95 2.13 2.15 2.13 2.11 2.14 2.19 2.19 2.30 2.14 2.43 3.03 3.03 3.58 4.97 6.06 6.26 6.61 5.83 5.80 5.79 5.64 5.55 5.77 5.77 5.68 5.76 4.75 5.12 5.77 5.77 5.77 5.59 4.87 4.89 4.90 4.91 4.29 5.07 3.22 3.00 3.01 2.88 2.72 2.55 2.43 2.29 1.98 0.95 0.86 0.82 0.78 0.74 0.72 0.70 0.67 0.63 0.62 0.60 0.58 0.57 0.55 0.53 0.53 0.51 0.52 0.51 0.50 0.51 0.52 0.52 0.53 0.54 0.55 0.56 0.57 0.58 0.59 0.60 0.62 0.62 0.63 0.64 0.66 0 -0.993000 8.267000 0.972497 
ODOM -0.993000 8.267000 0.972497 
ROBOTLASER1 0 -1.570796 3.141593 0.017453 81.900000 0.010000 0 181 3.19 3.34 3.49 3.49 3.48 3.46 3.44 3.43 3.42 3.40 3.40 3.38 3.37 3.37 3.35 3.35 3.33 2.85 1.98 1.99 1.98 1.98 1.97 2.84 2.85 2.84 2.85 2.85 2.86 2.87 2.87 2.87 2.88 2.89 2.90 2.90 2.93 2.94 2.16 1.98 2.10 3.51 3.53 3.56 3.59 3.61 3.64 3.67 3.71 3.74 3.78 3.81 3.85 3.90 3.93 3.98 4.02 4.08 4.13 4.18 4.24 4.30 2.61 2.60 3.12 3.37 3.37 3.21 4.28 4.84 2.08 1.94 2.11 0.00 4.90 4.86 4.83 3.37 3.31 2.08 2.05 2.04 2.04 1.91 1.89 2.08 2.10 2.05 2.05 2.05 2.10 2.12 2.23 2.06 2.34 2.96 2.96 3.42 4.89 5.98 6.21 6.58 5.75 5.75 5.74 5.71 5.39 5.71 5.71 5.63 5.32 4.81 4.67 5.20 5.70 5.71 5.55 4.82 4.83 4.83 4.84 4.86 4.88 3.90 3.08 2.95 2.96 2.79 2.66 2.48 2.37 2.26 1.96 1.87 1.79 0.89 0.84 0.81 0.77 0.74 0.71 0.69 0.67 0.64 0.63 0.60 0.59 0.58 0.56 0.55 0.54 0.52 0.51 0.50 0.49 0.49 0.48 0.49 0.48 0.49 0.49 0.49 0.50 0.52 0.53 0.54 0.55 0.56 0.57 0.59 0.60 0.61 0.63 0.65 0.73 0.79 0.77 0.77 0.77 0.75 0.76 0 -0.961000 8.331000 1.185253 
ODOM -0.961000 8.331000 1.185253 
ROBOTLASER1 0 -1.570796 3.141593 0.017453 81.900000 0.010000 0 181 1.92 1.90 1.85 1.89 1.91 2.69 2.77 2.77 2.78 2.77 2.77 2.77 2.77 2.76 2.77 2.77 2.78 2.56 2.78 2.78 2.79 2.03 1.85 1.89 2.91 3.32 3.34 3.35 3.38 3.39 3.41 3.43 3.46 3.49 3.51 3.53 3.56 3.60 3.62 3.66 3.69 3.72 3.76 3.81 3.86 3.89 3.94 3.99 4.03 2.39 4.14 2.90 3.13 3.15 3.15 3.96 1.94 4.65 1.79 1.85 2.25 2.94 4.68 4.65 4.61 3.21 3.05 1.84 1.80 1.88 1.94 1.64 1.63 1.94 1.85 1.90 1.88 1.87 1.87 1.86 1.83 1.83 1.81 1.79 2.37 2.69 2.69 3.07 4.61 5.70 5.90 6.22 5.48 5.46 5.47 5.47 4.91 5.62 5.45 5.45 5.37 5.37 4.47 4.44 5.20 5.44 5.60 5.29 4.57 4.58 4.59 4.60 4.62 3.94 5.14 3.67 2.93 2.78 2.74 2.75 2.57 2.45 2.35 2.24 2.16 2.07 1.99 1.78 1.70 1.63 1.59 1.54 1.48 1.42 1.38 1.34 1.31 1.28 0.88 0.71 0.69 0.67 0.65 0.64 0.62 0.61 0.61 0.59 0.58 0.56 0.56 0.55 0.54 0.53 0.52 0.52 0.51 0.51 0.50 0.49 0.49 0.48 0.47 0.47 0.47 0.46 0.46 0.45 0.45 0.45 0.44 0.45 0.44 0.44 0.43 0.43 0.43 0.43 0.42 0.42 0.43 0 -0.884000 8.583000 1.365371 
ODOM -0.884000 8.583000 1.365371 
ROBOTLASER1 0 -1.570796 3.141593 0.017453 81.900000 0.010000 0 181 2.75 2.75 3.22 3.00 3.23 3.25 3.25 3.26 3.27 3.29 3.30 3.31 3.33 3.34 3.36 3.37 3.39 3.42 3.43 3.46 3.48 3.50 3.53 3.56 3.59 3.62 2.13 2.31 3.72 3.76 3.80 2.62 1.65 1.49 1.51 1.56 1.57 3.65 3.69 3.99 4.33 2.52 2.61 4.30 1.50 1.46 1.51 1.55 1.25 1.25 1.26 1.70 1.75 1.65 1.55 1.50 1.48 1.45 1.47 1.45 1.42 1.42 1.42 1.39 1.38 1.40 2.26 2.27 2.27 2.26 2.25 2.35 2.54 3.99 4.22 5.28 5.39 5.62 5.52 5.05 4.65 5.02 5.02 4.46 5.18 5.00 4.99 4.90 4.98 4.26 3.97 4.51 4.95 5.00 5.25 4.83 4.12 4.12 4.14 4.15 4.17 4.19 3.47 4.60 3.09 3.18 2.52 2.38 2.29 2.30 2.31 2.18 2.09 2.03 1.95 1.88 1.82 1.77 1.75 1.67 1.60 1.57 1.53 1.37 1.34 1.30 1.27 1.25 1.22 1.20 1.17 1.15 1.11 1.09 1.06 1.04 1.02 1.02 1.00 0.97 0.96 0.95 0.94 0.93 0.92 0.90 0.90 0.92 0.89 0.88 0.88 0.87 0.86 0.85 0.84 0.84 0.83 0.82 0.82 0.82 0.81 0.81 0.81 0.49 0.46 0.46 0.45 0.46 0.46 0.45 0.45 0.45 0.44 0.44 0.44 0.44 0.44 0.44 0.44 0.43 0.43 0 -0.869000 9.037000 1.565037 
ODOM -0.869000 9.037000 1.565037 
ROBOTLASER1 0 -1.570796 3.141593 0.017453 81.900000 0.010000 0 181 1.09 0.81 0.80 0.70 0.70 0.72 0.00 0.00 0.69 0.63 0.62 0.63 0.64 0.65 0.66 0.65 0.66 0.70 0.69 0.69 0.67 3.20 3.44 2.29 2.11 2.05 1.98 1.93 1.89 1.84 0.98 0.99 0.98 1.08 1.07 1.08 1.53 1.51 1.48 1.46 1.43 1.42 1.40 1.38 1.36 1.35 1.33 1.31 1.30 1.28 1.28 1.29 1.33 1.37 1.42 1.47 1.51 3.20 3.15 3.10 3.03 3.02 2.99 2.97 2.96 2.94 3.12 3.26 3.86 4.23 4.26 4.41 4.60 4.52 0.00 3.90 3.93 3.93 3.40 3.40 4.12 3.89 3.89 3.89 3.78 3.90 3.66 3.18 2.88 0.00 4.00 3.89 3.89 4.11 3.75 3.72 3.12 3.02 3.02 3.05 3.05 3.06 3.08 3.10 3.11 2.40 2.40 2.38 2.39 0.00 0.00 2.91 2.45 2.40 1.53 1.48 1.43 1.40 1.36 1.32 1.29 1.26 1.28 1.30 1.31 1.31 1.27 1.24 1.21 1.19 1.16 1.14 1.13 1.10 1.09 1.09 1.08 1.05 1.03 1.01 1.00 0.98 0.98 0.96 0.95 0.94 0.92 0.92 0.92 0.92 0.90 0.91 0.93 0.89 0.87 0.86 0.86 0.86 0.85 0.84 0.84 0.83 0.83 0.83 0.82 0.82 0.82 0.81 0.82 0.81 0.81 0.80 0.81 0.82 1.10 0.82 0.74 0.73 0.73 0.73 0.72 0 -0.895000 10.147000 1.596278 
ODOM -0.895000 10.147000 1.596278 
ROBOTLASER1 0 -1.570796 3.141593 0.017453 81.900000 0.010000 0 181 0.84 0.84 0.84 0.84 0.85 0.85 0.86 0.86 0.87 0.87 0.87 0.87 0.88 0.89 0.90 0.95 0.95 0.97 2.97 2.89 2.84 2.77 2.72 2.68 3.26 3.30 3.32 3.36 3.39 3.43 3.47 3.51 3.56 3.42 3.27 3.13 2.99 2.88 2.77 2.67 2.60 2.51 2.43 2.37 2.20 2.17 2.13 2.10 2.08 2.06 2.03 2.01 2.03 2.08 2.13 2.20 2.26 2.35 2.52 2.71 2.82 2.94 3.28 3.31 3.40 3.50 3.54 2.39 3.47 2.98 0.00 2.93 2.37 2.36 2.49 2.88 3.17 3.10 2.86 2.86 2.86 2.77 2.84 2.85 2.83 2.83 2.11 2.84 2.84 2.84 2.85 2.85 2.85 3.08 3.01 2.70 2.70 2.27 2.10 1.99 2.00 2.01 2.01 2.03 2.04 2.05 2.06 2.07 2.09 2.11 2.13 2.17 2.68 2.59 2.50 1.83 2.33 2.27 2.21 2.14 2.10 2.03 1.99 1.94 1.90 1.86 1.82 1.14 1.66 1.71 1.67 1.64 1.62 1.59 1.57 1.54 1.53 1.51 1.44 1.47 1.44 1.42 1.41 1.39 1.39 1.36 1.36 1.34 1.32 0.77 0.70 0.70 0.69 0.69 0.68 0.68 0.68 0.67 0.67 0.66 0.66 0.66 0.65 0.65 0.65 0.66 0.65 0.65 0.64 0.64 0.64 0.64 0.64 0.64 0.64 0.64 0.64 0.66 0.75 0.74 0.74 0 -0.920000 11.180000 1.594358 
ODOM -0.920000 11.180000 1.594358 
ROBOTLASER1 0 -1.570796 3.141593 0.017453 81.900000 0.010000 0 181 0.91 0.90 0.90 0.92 2.00 2.01 2.47 3.20 3.37 3.38 3.38 3.39 3.29 3.23 3.24 3.25 3.25 3.26 3.11 3.00 2.91 2.82 2.74 2.66 2.59 2.55 3.09 3.10 3.12 3.14 3.17 3.19 3.21 3.25 3.27 3.30 3.34 3.31 3.07 2.89 2.72 2.59 2.47 2.35 2.24 2.15 1.94 1.91 1.87 1.84 1.81 1.78 1.75 1.72 1.73 1.75 1.78 1.82 1.86 1.90 1.95 1.99 2.05 2.27 2.35 2.43 2.52 2.62 2.95 2.93 2.98 3.04 3.13 1.99 3.33 0.00 3.17 0.00 0.00 1.99 1.98 2.10 2.56 2.51 2.49 2.78 2.76 2.48 2.48 2.46 2.38 2.41 2.46 2.46 2.44 2.35 2.45 2.46 2.45 2.47 2.46 2.47 2.46 2.47 2.70 2.63 2.32 2.33 2.33 1.91 1.79 1.67 1.62 1.64 1.65 1.66 1.67 1.67 1.69 1.70 1.71 1.72 1.73 1.74 1.75 1.77 1.79 2.27 2.21 2.15 2.09 2.03 1.98 1.93 1.89 1.10 1.81 1.77 1.74 1.71 1.67 1.65 1.62 1.59 1.56 1.54 1.51 1.49 1.47 1.46 1.43 1.41 1.40 1.38 1.27 0.00 1.34 1.33 1.31 1.30 1.29 1.28 1.27 1.24 1.26 1.25 1.23 1.23 1.22 1.21 1.21 1.21 1.20 1.20 1.19 1.18 1.18 1.18 1.17 1.17 1.17 0 -0.913000 11.570000 1.389806 
ODOM -0.913000 11.570000 1.389806 
ROBOTLASER1 0 -1.570796 3.141593 0.017453 81.900000 0.010000 0 181 0.88 0.88 0.88 0.87 0.88 0.87 0.91 0.92 0.90 0.89 0.96 1.55 1.91 2.98 2.01 1.99 2.14 3.19 3.18 3.35 3.35 3.36 3.36 3.29 3.20 3.21 3.21 3.22 3.23 3.07 2.97 2.87 2.78 2.69 2.62 2.54 2.51 3.04 3.06 3.07 3.09 3.12 3.13 3.16 3.18 3.21 3.24 3.27 3.30 3.09 2.88 2.71 2.55 2.42 2.30 2.19 2.10 1.87 1.83 1.80 1.77 1.74 1.71 1.68 1.65 1.65 1.68 1.71 1.74 1.78 1.82 1.86 1.91 1.96 2.01 2.25 2.31 2.37 2.51 2.64 2.87 2.85 2.90 2.96 3.04 1.91 3.14 0.00 3.09 0.00 0.00 2.12 1.89 1.98 2.07 2.44 2.42 2.71 2.65 2.41 2.40 2.41 2.31 2.30 2.38 2.39 2.38 2.38 2.39 2.18 2.38 2.38 2.38 2.38 2.39 2.38 2.40 2.62 2.56 2.47 2.24 2.24 1.92 1.79 1.68 1.58 1.53 1.55 1.56 1.57 1.58 1.60 1.61 1.61 1.62 1.64 1.66 1.67 1.69 1.70 1.72 1.75 2.15 2.09 2.04 1.99 1.94 1.90 1.86 1.82 1.79 1.05 1.72 1.68 1.66 1.63 1.60 1.57 1.56 1.52 1.50 1.48 1.46 1.44 1.43 1.41 1.39 1.37 1.36 1.35 1.34 1.33 1.29 0.85 1.30 1.29 1.28 1.27 1.26 1.24 1.24 0 -0.890000 11.650000 1.181239 
ODOM -0.890000 11.650000 1.181239 
ROBOTLASER1 0 -1.570796 3.141593 0.017453 81.900000 0.010000 0 181 1.35 1.42 1.49 1.51 1.50 1.49 1.57 1.66 1.76 1.86 2.11 1.92 2.24 1.90 2.88 2.88 2.87 2.88 3.06 3.06 3.05 3.22 3.21 3.21 3.20 3.20 3.03 3.02 3.03 3.02 3.03 2.99 2.80 2.67 2.55 2.45 2.34 2.26 2.47 2.77 2.78 2.79 2.80 2.81 2.83 2.85 2.85 2.88 2.90 2.91 2.93 2.95 2.98 2.93 2.59 2.33 2.13 1.96 1.83 1.52 1.47 1.43 1.41 1.37 1.34 1.31 1.28 1.26 1.27 1.29 1.30 1.32 1.35 1.38 1.39 1.43 1.45 1.48 1.52 1.54 1.58 1.77 1.81 1.87 1.93 1.98 2.04 2.15 2.47 2.45 2.42 2.47 2.53 2.59 2.64 2.70 3.01 2.62 2.67 0.00 0.00 2.08 2.02 1.50 1.49 1.61 2.00 2.01 2.02 2.27 2.23 2.01 2.00 2.00 1.99 1.94 1.90 1.92 2.03 1.98 1.98 2.11 2.14 1.98 1.99 1.56 1.26 2.00 2.00 2.01 2.31 2.37 2.37 2.32 2.23 2.25 1.91 1.91 1.92 1.92 1.94 1.56 1.51 1.45 1.40 1.35 1.31 1.26 1.24 1.25 1.27 1.28 1.30 1.30 1.32 1.34 1.36 1.38 1.40 1.42 1.45 1.46 1.48 1.51 1.63 1.84 1.81 1.79 1.75 1.73 1.71 1.69 1.67 1.64 1.62 1.60 1.58 1.57 1.55 1.53 1.51 0 -0.708000 12.028000 0.988380 
ODOM -0.708000 12.028000 0.988380 
ROBOTLASER1 0 -1.570796 3.141593 0.017453 81.900000 0.010000 0 181 1.09 1.13 1.16 1.19 1.23 1.26 1.30 1.35 1.39 1.44 1.50 1.47 1.47 1.49 1.54 1.60 1.68 1.76 1.82 1.83 1.87 2.17 1.84 2.92 2.85 2.81 2.80 2.80 2.81 2.97 2.98 2.96 3.13 3.12 3.11 3.12 3.11 2.94 2.93 2.93 2.92 2.92 2.92 2.73 2.58 2.44 2.32 2.21 2.14 2.64 2.63 2.65 2.66 2.67 2.68 2.69 2.70 2.72 2.72 2.73 2.75 2.77 2.79 2.81 2.83 2.84 2.47 2.17 1.95 1.78 1.39 1.34 1.30 1.26 1.23 1.19 1.17 1.14 1.11 1.10 1.12 1.11 1.14 1.16 1.17 1.19 1.20 1.22 1.24 1.27 1.29 1.32 1.35 1.39 1.42 1.60 1.63 1.68 1.73 1.77 1.83 1.89 1.98 2.31 2.27 2.28 2.33 2.39 2.44 2.48 1.33 2.54 2.52 2.44 2.36 1.94 1.92 1.92 1.91 1.34 1.34 1.35 1.47 1.87 1.99 2.08 2.03 1.87 1.86 1.86 1.85 1.95 1.82 1.78 1.79 1.95 1.86 2.00 1.90 1.87 1.87 1.88 1.88 1.88 1.90 1.14 1.16 2.47 2.31 2.35 2.33 2.14 2.16 2.18 1.83 1.83 1.83 1.84 1.87 1.87 1.52 1.46 1.43 1.38 1.35 1.31 1.28 1.24 1.22 1.19 1.20 1.22 1.24 1.25 1.28 1.30 1.31 1.34 1.36 1.38 1.41 0 -0.596000 12.152000 0.752761 
ODOM -0.596000 12.152000 0.752761 
ROBOTLASER1 0 -1.570796 3.141593 0.017453 81.900000 0.010000 0 181 1.17 1.19 1.20 1.22 1.25 1.28 1.30 1.33 1.36 1.39 1.43 1.45 1.43 1.41 1.43 1.47 1.51 1.55 1.59 1.63 1.68 1.74 1.71 1.69 1.69 1.74 1.73 3.23 3.21 3.18 2.77 2.71 2.69 2.67 2.67 2.69 2.83 2.84 2.82 2.99 2.97 2.96 2.95 2.94 2.93 2.76 2.75 2.75 2.74 2.74 2.70 2.45 2.27 2.11 1.98 1.94 2.42 2.41 2.42 2.43 2.43 2.44 2.45 2.44 2.45 2.47 2.47 2.48 2.49 2.50 2.52 2.54 2.54 2.56 2.57 2.39 1.95 1.67 1.10 1.06 1.02 0.99 0.96 0.93 0.90 0.87 0.85 0.82 0.82 0.81 0.81 0.82 0.83 0.84 0.86 0.87 0.89 0.90 0.92 0.94 0.96 0.98 1.00 1.02 1.05 1.07 1.10 1.13 1.16 1.33 1.37 1.41 1.45 1.49 1.54 1.59 1.64 2.05 2.03 2.01 2.01 1.99 2.08 2.03 2.17 2.25 2.24 2.33 1.18 2.12 1.72 1.69 1.70 1.70 1.67 1.69 1.68 1.67 1.65 1.12 1.12 1.13 1.74 1.66 1.76 1.81 1.66 1.67 1.66 1.67 1.67 1.68 1.60 1.61 1.77 1.83 1.70 1.70 1.71 1.74 1.74 1.73 0.00 0.00 2.62 2.42 2.33 2.28 2.30 2.34 2.02 1.02 1.46 2.10 2.12 1.73 1.74 1.75 1.77 1.80 1.81 0 -0.387000 12.335000 0.537736 
ODOM -0.387000 12.335000 0.537736 
ROBOTLASER1 0 -1.570796 3.141593 0.017453 81.900000 0.010000 0 181 1.05 1.07 1.07 1.08 1.09 1.11 1.13 1.14 1.16 1.17 1.18 1.20 1.22 1.24 1.26 1.29 1.31 1.34 1.37 1.40 1.42 1.41 1.39 1.40 1.43 1.45 1.49 1.52 1.57 1.60 1.65 1.66 1.61 1.66 3.33 1.78 1.69 3.23 3.20 3.16 3.14 2.76 2.67 2.64 2.63 2.62 2.62 2.72 2.79 2.77 2.76 2.92 2.90 2.89 2.89 2.88 2.70 2.68 2.68 2.67 2.67 2.66 2.51 2.29 2.12 1.96 1.86 1.94 2.34 2.35 2.35 2.35 2.35 2.36 2.37 2.36 2.37 2.38 2.39 2.40 2.41 2.42 2.44 2.45 2.45 2.47 2.49 2.50 2.00 1.66 1.03 0.98 0.94 0.92 0.88 0.86 0.83 0.82 0.79 0.77 0.75 0.74 0.75 0.75 0.75 0.76 0.77 0.77 0.79 0.80 0.81 0.82 0.84 0.85 0.87 0.88 0.91 0.93 0.96 0.99 1.00 1.04 1.07 1.17 1.29 1.32 1.37 1.41 1.45 1.50 1.56 1.97 1.97 1.95 1.93 1.91 1.96 2.03 2.12 2.20 2.14 2.18 2.11 2.04 1.18 1.65 1.65 1.64 1.65 1.64 1.65 1.76 1.63 1.64 1.63 1.07 1.08 1.08 1.63 1.63 1.63 1.64 1.63 1.64 1.64 1.64 1.65 1.57 1.58 1.60 1.66 1.68 1.70 0.00 0.00 0.00 0.00 3.80 2.65 2.51 2.40 0 -0.310000 12.370000 0.319221 
ODOM -0.310000 12.370000 0.319221 
ROBOTLASER1 0 -1.570796 3.141593 0.017453 81.900000 0.010000 0 181 1.10 1.11 1.11 1.12 1.13 1.13 1.15 1.15 1.17 1.17 1.19 1.20 1.21 1.22 1.24 1.26 1.27 1.29 1.30 1.32 1.30 1.27 1.28 1.29 1.31 1.33 1.35 1.37 1.39 1.42 1.45 1.47 1.49 1.47 1.45 1.48 1.62 3.34 1.49 1.50 3.19 3.14 3.11 3.07 3.04 3.00 2.96 2.94 2.49 2.44 2.41 2.38 2.39 2.37 2.45 2.54 2.53 2.51 2.58 2.66 2.64 2.63 2.62 2.61 2.51 2.41 2.41 2.39 2.39 2.38 2.37 2.10 1.87 1.68 1.57 1.57 2.36 2.04 2.04 2.04 2.04 2.04 2.05 2.05 2.05 2.05 2.06 2.06 2.06 2.07 2.08 2.09 2.10 2.11 2.12 2.13 2.14 2.15 2.17 2.19 1.86 1.55 1.33 1.16 1.03 0.69 0.67 0.65 0.63 0.61 0.59 0.60 0.58 0.56 0.54 0.52 0.52 0.50 0.49 0.48 0.47 0.47 0.46 0.45 0.44 0.45 0.44 0.45 0.45 0.46 0.47 0.48 0.48 0.50 0.50 0.51 0.53 0.55 0.57 0.58 0.60 0.62 0.64 0.68 0.70 0.74 0.77 0.81 0.88 1.16 1.22 1.29 1.38 1.75 1.74 1.72 1.72 1.79 1.82 1.81 1.75 1.79 1.79 1.54 1.53 1.53 1.52 1.53 1.57 1.58 1.64 1.66 1.52 1.54 1.53 0.96 1.85 1.81 1.82 1.54 1.54 0 -0.001000 12.445000 0.091455 
ODOM -0.001000 12.445000 0.091455 
